,FID,COMPANY_NAME,ADDRESS,CITY,STATE,ZIPCODE,LATITUDE,LONGITUDE,NAICS2,NAICS CODE,Industry Description,INDU_EMP,SERV_EMP,COMM_EMP,ESTEMP,TOTALPOP,HOUSEHOLDS,MALE,FEMALE,%Male,%FEMALE,WHITE,BLACK,AMERI_ES,ASIAN,HAWN_PI,OTHER,MULT_RACE,HISPANIC,WHITE_NH,%WHITE,%BLACK,%INDIAN,%ASIAN,PCT_HAWN,%OTHER,%MULTI,%HISP,AVERAGE_HOUSEHOLD_SIZE,AGE_BELOW_18,AGE_18_40,AGE_40_65,AGE_65+,AGE_MEDIAN,TRAN_TOTAL,TRAN_CAR,TRAN_MOTO,TRAN_BIKE,TRAN_PUB,TRAN_WALK,TRAN_OTHER,TRAN_HOME,CURRENTLY_STUDENT,CURRENTLY_NOT_STUDENT,LESS_$10K,I10K_14K,I15K_19K,I20K_24K,I25K_29K,I30K_34K,I35K_39K,I40K_44K,I45K_49K,I50K_59K,I60K_74K,I75K_99K,I100K_124K,I125K_149K,I150K_199K,I200KMORE,MEDIAN_HOUSEHOLD_INCOME,%_BACHELOR_DEGREE,%POVERTY
13,13,St Patrick Church,500 NE 16th Ave,GAINESVILLE,FL,32601,29.666617,-82.318793,813110,81311008,Religious Organizations,0,5.0,0,5,853,437,424,429,50%,50%,794,58,0,1,0,0,0,41,753,93.08323564,6.79953107,0.0,0.11723329,0.0,0.0,0.0,4.80656506,1.92,64,297,294,396,43,435,282,0,0,0,0,0,153,64,779,40,58,50,10,41,13,40,0,18,72,56,7,24,8,0,0,35903,46.07268464,27.19812427
15,15,St Patrick's Church,550 NE 16th Ave,GAINESVILLE,FL,32601,29.667398,-82.319288,813110,81311008,Religious Organizations,0,12.0,0,12,853,437,424,429,50%,50%,794,58,0,1,0,0,0,41,753,93.08323564,6.79953107,0.0,0.11723329,0.0,0.0,0.0,4.80656506,1.92,64,297,294,396,43,435,282,0,0,0,0,0,153,64,779,40,58,50,10,41,13,40,0,18,72,56,7,24,8,0,0,35903,46.07268464,27.19812427
175,175,First Presbyterian Chr-Gnsvll,106 SW 3rd St,GAINESVILLE,FL,32601,29.651039,-82.327958,813110,81311008,Religious Organizations,0,3.0,0,3,2010,855,1060,950,53%,47%,1398,451,0,15,0,39,107,124,1313,69.55223881,22.43781095,0.0,0.74626866,0.0,1.94029851,5.32338308,6.16915423,2.26,240,1162,522,172,26,862,554,0,121,60,55,0,72,830,1170,235,104,29,74,72,24,17,50,0,115,17,33,14,0,14,57,22734,7.06467662,38.3
176,176,First Presbyterian Church,106 SW 3rd St,GAINESVILLE,FL,32601,29.650706,-82.328331,813110,81311008,Religious Organizations,0,10.0,0,10,2010,855,1060,950,53%,47%,1398,451,0,15,0,39,107,124,1313,69.55223881,22.43781095,0.0,0.74626866,0.0,1.94029851,5.32338308,6.16915423,2.26,240,1162,522,172,26,862,554,0,121,60,55,0,72,830,1170,235,104,29,74,72,24,17,50,0,115,17,33,14,0,14,57,22734,7.06467662,38.3
179,179,First United Mthdst Chr-Gnsvll,419 NE 1st St,GAINESVILLE,FL,32601,29.655459000000004,-82.32355,813110,81311008,Religious Organizations,0,11.0,0,11,2010,855,1060,950,53%,47%,1398,451,0,15,0,39,107,124,1313,69.55223881,22.43781095,0.0,0.74626866,0.0,1.94029851,5.32338308,6.16915423,2.26,240,1162,522,172,26,862,554,0,121,60,55,0,72,830,1170,235,104,29,74,72,24,17,50,0,115,17,33,14,0,14,57,22734,7.06467662,38.3
253,253,Holy Trinity Episcopal Church,100 NE 1st St,GAINESVILLE,FL,32601,29.652841,-82.32435500000001,813110,81311008,Religious Organizations,0,8.0,0,8,2010,855,1060,950,53%,47%,1398,451,0,15,0,39,107,124,1313,69.55223881,22.43781095,0.0,0.74626866,0.0,1.94029851,5.32338308,6.16915423,2.26,240,1162,522,172,26,862,554,0,121,60,55,0,72,830,1170,235,104,29,74,72,24,17,50,0,115,17,33,14,0,14,57,22734,7.06467662,38.3
254,254,Holy Trinity Episcopal Fndtn,305 NE 1st St,GAINESVILLE,FL,32601,29.654161,-82.323688,813110,81311009,Religious Organizations,0,3.0,0,3,2010,855,1060,950,53%,47%,1398,451,0,15,0,39,107,124,1313,69.55223881,22.43781095,0.0,0.74626866,0.0,1.94029851,5.32338308,6.16915423,2.26,240,1162,522,172,26,862,554,0,121,60,55,0,72,830,1170,235,104,29,74,72,24,17,50,0,115,17,33,14,0,14,57,22734,7.06467662,38.3
335,335,New Life World Tabernacle,133 SE 10th St,GAINESVILLE,FL,32601,29.650378000000003,-82.313011,813110,81311008,Religious Organizations,0,2.0,0,2,2010,855,1060,950,53%,47%,1398,451,0,15,0,39,107,124,1313,69.55223881,22.43781095,0.0,0.74626866,0.0,1.94029851,5.32338308,6.16915423,2.26,240,1162,522,172,26,862,554,0,121,60,55,0,72,830,1170,235,104,29,74,72,24,17,50,0,115,17,33,14,0,14,57,22734,7.06467662,38.3
364,364,Refuge Church of Our Lord,601 NW 2nd St,GAINESVILLE,FL,32601,29.656893,-82.326493,813110,81311008,Religious Organizations,0,2.0,0,2,2010,855,1060,950,53%,47%,1398,451,0,15,0,39,107,124,1313,69.55223881,22.43781095,0.0,0.74626866,0.0,1.94029851,5.32338308,6.16915423,2.26,240,1162,522,172,26,862,554,0,121,60,55,0,72,830,1170,235,104,29,74,72,24,17,50,0,115,17,33,14,0,14,57,22734,7.06467662,38.3
394,394,Salvation Army,639 E University Ave,GAINESVILLE,FL,32601,29.651559000000002,-82.317947,813110,81311008,Religious Organizations,0,12.0,0,12,2010,855,1060,950,53%,47%,1398,451,0,15,0,39,107,124,1313,69.55223881,22.43781095,0.0,0.74626866,0.0,1.94029851,5.32338308,6.16915423,2.26,240,1162,522,172,26,862,554,0,121,60,55,0,72,830,1170,235,104,29,74,72,24,17,50,0,115,17,33,14,0,14,57,22734,7.06467662,38.3
480,480,Visionaries Church of God,606 N Main St,GAINESVILLE,FL,32601,29.657002000000002,-82.325627,813110,81311008,Religious Organizations,0,2.0,0,2,2010,855,1060,950,53%,47%,1398,451,0,15,0,39,107,124,1313,69.55223881,22.43781095,0.0,0.74626866,0.0,1.94029851,5.32338308,6.16915423,2.26,240,1162,522,172,26,862,554,0,121,60,55,0,72,830,1170,235,104,29,74,72,24,17,50,0,115,17,33,14,0,14,57,22734,7.06467662,38.3
527,527,ELCA SOLUTIONS,1025 SE 1ST AVE # B,GAINESVILLE,FL,32601,29.650862,-82.312535,813110,81311008,RELIGIOUS ORGANIZATIONS,0,2.0,0,2,2010,855,1060,950,53%,47%,1398,451,0,15,0,39,107,124,1313,69.55223881,22.43781095,0.0,0.74626866,0.0,1.94029851,5.32338308,6.16915423,2.26,240,1162,522,172,26,862,554,0,121,60,55,0,72,830,1170,235,104,29,74,72,24,17,50,0,115,17,33,14,0,14,57,22734,7.06467662,38.3
544,544,HOLY TRINITY COUNSELING CTR,100 NE 1ST ST,GAINESVILLE,FL,32601,29.652841,-82.32435500000001,813110,81311008,RELIGIOUS ORGANIZATIONS,0,2.0,0,2,2010,855,1060,950,53%,47%,1398,451,0,15,0,39,107,124,1313,69.55223881,22.43781095,0.0,0.74626866,0.0,1.94029851,5.32338308,6.16915423,2.26,240,1162,522,172,26,862,554,0,121,60,55,0,72,830,1170,235,104,29,74,72,24,17,50,0,115,17,33,14,0,14,57,22734,7.06467662,38.3
608,608,United Methodist Chr Dist Ofc,PO Box 15178,GAINESVILLE,FL,32604,29.655759000000003,-82.323494,813110,81311009,Religious Organizations,0,2.0,0,2,2010,855,1060,950,53%,47%,1398,451,0,15,0,39,107,124,1313,69.55223881,22.43781095,0.0,0.74626866,0.0,1.94029851,5.32338308,6.16915423,2.26,240,1162,522,172,26,862,554,0,121,60,55,0,72,830,1170,235,104,29,74,72,24,17,50,0,115,17,33,14,0,14,57,22734,7.06467662,38.3
613,613,Compassionate Outreach Mnstrs,1124 NE 3rd Ave,GAINESVILLE,FL,32601,29.654097999999998,-82.3108,813110,81311004,Religious Organizations,0,3.0,0,3,1329,509,540,789,41%,59%,904,425,0,0,0,0,0,144,760,68.02106847,31.97893153,0.0,0.0,0.0,0.0,0.0,10.83521445,2.61,428,536,282,166,27,522,421,0,40,35,14,0,12,529,666,69,71,11,74,44,33,61,25,16,54,15,14,22,0,0,0,28705,16.77953348,41.0082769
616,616,Emanuel Baptist Church,1203 NE 8th Ave,GAINESVILLE,FL,32601,29.659049,-82.310056,813110,81311008,Religious Organizations,0,1.0,0,1,1329,509,540,789,41%,59%,904,425,0,0,0,0,0,144,760,68.02106847,31.97893153,0.0,0.0,0.0,0.0,0.0,10.83521445,2.61,428,536,282,166,27,522,421,0,40,35,14,0,12,529,666,69,71,11,74,44,33,61,25,16,54,15,14,22,0,0,0,28705,16.77953348,41.0082769
626,626,Kingdom Hall-Jehovah's Witness,1124 NE 3rd Ave,GAINESVILLE,FL,32601,29.654097999999998,-82.3108,813110,81311008,Religious Organizations,0,1.0,0,1,1329,509,540,789,41%,59%,904,425,0,0,0,0,0,144,760,68.02106847,31.97893153,0.0,0.0,0.0,0.0,0.0,10.83521445,2.61,428,536,282,166,27,522,421,0,40,35,14,0,12,529,666,69,71,11,74,44,33,61,25,16,54,15,14,22,0,0,0,28705,16.77953348,41.0082769
639,639,KINGDOM HALL WALDO ROAD,1124 NE 3RD AVE,GAINESVILLE,FL,32601,29.654097999999998,-82.3108,813110,81311006,RELIGIOUS ORGANIZATIONS,0,3.0,0,3,1329,509,540,789,41%,59%,904,425,0,0,0,0,0,144,760,68.02106847,31.97893153,0.0,0.0,0.0,0.0,0.0,10.83521445,2.61,428,536,282,166,27,522,421,0,40,35,14,0,12,529,666,69,71,11,74,44,33,61,25,16,54,15,14,22,0,0,0,28705,16.77953348,41.0082769
649,649,Highlands Presbyterian Church,1001 NE 16th Ave,GAINESVILLE,FL,32601,29.666265000000003,-82.31355500000001,813110,81311008,Religious Organizations,0,1.0,0,1,711,437,297,414,42%,58%,617,68,0,0,0,0,26,28,589,86.77918425,9.56399437,0.0,0.0,0.0,0.0,3.65682138,3.93811533,1.63,48,245,319,198,46,403,331,0,72,0,0,0,0,111,600,0,21,0,51,84,29,14,28,11,55,15,65,13,17,19,15,41741,17.72151899,2.39099859
679,679,Gainesville Christian Ctr Inc,1433 NE 16th Ave,GAINESVILLE,FL,32601,29.666190999999998,-82.30600799999999,813110,81311008,Religious Organizations,0,2.0,0,2,718,352,340,378,47%,53%,439,249,0,12,0,18,0,71,386,61.14206128,34.67966574,0.0,1.67130919,0.0,2.50696379,0.0,9.88857939,1.88,118,189,317,188,44,446,287,0,117,0,19,0,23,143,558,47,0,16,8,31,18,0,33,0,58,36,92,13,0,0,0,55652,20.75208914,18.10584958
711,711,Lubavitch Chadbad Jewish Ctr,2021 NW 5th Ave,GAINESVILLE,FL,32603,29.655408,-82.350047,813110,81311041,Religious Organizations,0,2.0,0,2,1918,612,963,955,50%,50%,1808,39,0,28,0,43,0,152,1695,94.26485923,2.03336809,0.0,1.45985401,0.0,2.24191867,0.0,7.92492179,3.09,125,1528,206,118,22,940,696,0,83,0,43,0,118,1291,614,216,0,40,15,39,0,0,45,10,0,85,29,70,9,23,31,29630,6.56934307,53.43189018
718,718,United Church of Gainesville,1624 NW 5th Ave,GAINESVILLE,FL,32603,29.656114000000002,-82.344174,813110,81311008,Religious Organizations,0,13.0,0,13,1918,612,963,955,50%,50%,1808,39,0,28,0,43,0,152,1695,94.26485923,2.03336809,0.0,1.45985401,0.0,2.24191867,0.0,7.92492179,3.09,125,1528,206,118,22,940,696,0,83,0,43,0,118,1291,614,216,0,40,15,39,0,0,45,10,0,85,29,70,9,23,31,29630,6.56934307,53.43189018
839,839,Baptist Collegiate Ministries,1604 W University Ave,GAINESVILLE,FL,32603,29.652465999999997,-82.34358,813110,81311021,Religious Organizations,0,2.0,0,2,1914,973,1248,666,65%,35%,1690,22,0,152,0,4,46,609,1085,88.29676071,1.14942529,0.0,7.9414838,0.0,0.20898642,2.40334378,31.81818182,1.82,0,1794,100,40,22,961,597,0,200,3,135,0,26,1690,224,493,76,53,31,48,134,0,0,0,76,0,45,17,0,0,0,9734,9.50888192,65.96568899
845,845,Chapel-Incarnation,1522 W University Ave,GAINESVILLE,FL,32603,29.652477,-82.342322,813110,81311008,Religious Organizations,0,4.0,0,4,1914,973,1248,666,65%,35%,1690,22,0,152,0,4,46,609,1085,88.29676071,1.14942529,0.0,7.9414838,0.0,0.20898642,2.40334378,31.81818182,1.82,0,1794,100,40,22,961,597,0,200,3,135,0,26,1690,224,493,76,53,31,48,134,0,0,0,76,0,45,17,0,0,0,9734,9.50888192,65.96568899
848,848,Christian Campus House,1810 NW 1st Ave,GAINESVILLE,FL,32603,29.652844,-82.346643,813110,81311008,Religious Organizations,0,3.0,0,3,1914,973,1248,666,65%,35%,1690,22,0,152,0,4,46,609,1085,88.29676071,1.14942529,0.0,7.9414838,0.0,0.20898642,2.40334378,31.81818182,1.82,0,1794,100,40,22,961,597,0,200,3,135,0,26,1690,224,493,76,53,31,48,134,0,0,0,76,0,45,17,0,0,0,9734,9.50888192,65.96568899
849,849,Christian Study Ctr Ginesville,112 NW 16th St,GAINESVILLE,FL,32603,29.653215000000003,-82.343502,813110,81311008,Religious Organizations,0,3.0,0,3,1914,973,1248,666,65%,35%,1690,22,0,152,0,4,46,609,1085,88.29676071,1.14942529,0.0,7.9414838,0.0,0.20898642,2.40334378,31.81818182,1.82,0,1794,100,40,22,961,597,0,200,3,135,0,26,1690,224,493,76,53,31,48,134,0,0,0,76,0,45,17,0,0,0,9734,9.50888192,65.96568899
857,857,First Lutheran Church,1801 NW 5th Ave,GAINESVILLE,FL,32603,29.6555,-82.34571700000001,813110,81311008,Religious Organizations,0,7.0,0,7,1914,973,1248,666,65%,35%,1690,22,0,152,0,4,46,609,1085,88.29676071,1.14942529,0.0,7.9414838,0.0,0.20898642,2.40334378,31.81818182,1.82,0,1794,100,40,22,961,597,0,200,3,135,0,26,1690,224,493,76,53,31,48,134,0,0,0,76,0,45,17,0,0,0,9734,9.50888192,65.96568899
866,866,Gator Wesley Foundation,1380 W University Ave,GAINESVILLE,FL,32603,29.652126000000003,-82.34026800000001,813110,81311009,Religious Organizations,0,3.0,0,3,1914,973,1248,666,65%,35%,1690,22,0,152,0,4,46,609,1085,88.29676071,1.14942529,0.0,7.9414838,0.0,0.20898642,2.40334378,31.81818182,1.82,0,1794,100,40,22,961,597,0,200,3,135,0,26,1690,224,493,76,53,31,48,134,0,0,0,76,0,45,17,0,0,0,9734,9.50888192,65.96568899
899,899,University Lutheran Church,1826 W University Ave,GAINESVILLE,FL,32603,29.65247,-82.34739300000001,813110,81311008,Religious Organizations,0,3.0,0,3,1914,973,1248,666,65%,35%,1690,22,0,152,0,4,46,609,1085,88.29676071,1.14942529,0.0,7.9414838,0.0,0.20898642,2.40334378,31.81818182,1.82,0,1794,100,40,22,961,597,0,200,3,135,0,26,1690,224,493,76,53,31,48,134,0,0,0,76,0,45,17,0,0,0,9734,9.50888192,65.96568899
904,904,CAMPUS HOUSE-CHRISTIAN CAMPUS,16 NW 18TH ST,GAINESVILLE,FL,32603,29.652678,-82.346512,813110,81311008,RELIGIOUS ORGANIZATIONS,0,2.0,0,2,1914,973,1248,666,65%,35%,1690,22,0,152,0,4,46,609,1085,88.29676071,1.14942529,0.0,7.9414838,0.0,0.20898642,2.40334378,31.81818182,1.82,0,1794,100,40,22,961,597,0,200,3,135,0,26,1690,224,493,76,53,31,48,134,0,0,0,76,0,45,17,0,0,0,9734,9.50888192,65.96568899
925,925,St Augustine Church & Catholic,PO Box 13888,GAINESVILLE,FL,32604,29.652559000000004,-82.346058,813110,81311008,Religious Organizations,0,20.0,0,20,1914,973,1248,666,65%,35%,1690,22,0,152,0,4,46,609,1085,88.29676071,1.14942529,0.0,7.9414838,0.0,0.20898642,2.40334378,31.81818182,1.82,0,1794,100,40,22,961,597,0,200,3,135,0,26,1690,224,493,76,53,31,48,134,0,0,0,76,0,45,17,0,0,0,9734,9.50888192,65.96568899
928,928,Angel of Mercy Ministries,PO Box 12563,GAINESVILLE,FL,32604,29.652791999999998,-82.343994,813110,81311021,Religious Organizations,0,50.0,0,50,1914,973,1248,666,65%,35%,1690,22,0,152,0,4,46,609,1085,88.29676071,1.14942529,0.0,7.9414838,0.0,0.20898642,2.40334378,31.81818182,1.82,0,1794,100,40,22,961,597,0,200,3,135,0,26,1690,224,493,76,53,31,48,134,0,0,0,76,0,45,17,0,0,0,9734,9.50888192,65.96568899
930,930,Cypress Church,PO Box 14082,GAINESVILLE,FL,32604,29.652791999999998,-82.343994,813110,81311008,Religious Organizations,0,8.0,0,8,1914,973,1248,666,65%,35%,1690,22,0,152,0,4,46,609,1085,88.29676071,1.14942529,0.0,7.9414838,0.0,0.20898642,2.40334378,31.81818182,1.82,0,1794,100,40,22,961,597,0,200,3,135,0,26,1690,224,493,76,53,31,48,134,0,0,0,76,0,45,17,0,0,0,9734,9.50888192,65.96568899
962,962,Covenant Church,3115 NW 16th Ave,GAINESVILLE,FL,32605,29.666139,-82.36901800000001,813110,81311008,Religious Organizations,0,1.0,0,1,602,239,321,281,53%,47%,602,0,0,0,0,0,0,54,548,100.0,0.0,0.0,0.0,0.0,0.0,0.0,8.97009967,2.52,128,171,192,222,41,275,219,6,11,0,12,0,27,162,411,17,12,0,0,0,0,0,0,11,19,31,24,28,0,43,54,105859,17.77408638,9.80066445
969,969,New Life Community Chapel,1001 NW 34th St,GAINESVILLE,FL,32605,29.662807,-82.371748,813110,81311008,Religious Organizations,0,2.0,0,2,602,239,321,281,53%,47%,602,0,0,0,0,0,0,54,548,100.0,0.0,0.0,0.0,0.0,0.0,0.0,8.97009967,2.52,128,171,192,222,41,275,219,6,11,0,12,0,27,162,411,17,12,0,0,0,0,0,0,11,19,31,24,28,0,43,54,105859,17.77408638,9.80066445
971,971,Westminster Presbyterian Chr,1521 NW 34th St,GAINESVILLE,FL,32605,29.666182,-82.371802,813110,81311008,Religious Organizations,0,7.0,0,7,602,239,321,281,53%,47%,602,0,0,0,0,0,0,54,548,100.0,0.0,0.0,0.0,0.0,0.0,0.0,8.97009967,2.52,128,171,192,222,41,275,219,6,11,0,12,0,27,162,411,17,12,0,0,0,0,0,0,11,19,31,24,28,0,43,54,105859,17.77408638,9.80066445
1002,1002,Dove World Outreach Ctr,5200 NW 43rd St # 102,GAINESVILLE,FL,32606,29.701335999999998,-82.390568,813110,81311027,Religious Organizations,0,5.0,0,5,868,429,406,462,47%,53%,679,0,0,189,0,0,0,183,496,78.22580645,0.0,0.0,21.77419355,0.0,0.0,0.0,21.08294931,2.01,254,310,229,150,34,423,346,0,0,0,0,0,77,262,525,0,0,26,30,0,16,49,26,9,89,108,0,39,9,0,28,53267,14.28571429,3.68663594
1068,1068,Faith Presbyterian Church,5916 NW 39th Ave,GAINESVILLE,FL,32606,29.689906,-82.405999,813110,81311008,Religious Organizations,0,7.0,0,7,4273,1656,2181,2092,51%,49%,3052,313,0,812,0,18,78,263,2822,71.42522818,7.32506436,0.0,19.00304236,0.0,0.42124971,1.8254153999999998,6.15492628,2.57,676,1479,1453,1330,40,2122,1994,0,0,24,0,0,104,1487,2708,156,128,32,40,171,64,47,38,0,149,55,201,76,92,148,259,60288,15.328808800000003,11.70138076
1076,1076,Grace Baptist Church,7100 NW 39th Ave,GAINESVILLE,FL,32606,29.689994,-82.419477,813110,81311008,Religious Organizations,0,4.0,0,4,4273,1656,2181,2092,51%,49%,3052,313,0,812,0,18,78,263,2822,71.42522818,7.32506436,0.0,19.00304236,0.0,0.42124971,1.8254153999999998,6.15492628,2.57,676,1479,1453,1330,40,2122,1994,0,0,24,0,0,104,1487,2708,156,128,32,40,171,64,47,38,0,149,55,201,76,92,148,259,60288,15.328808800000003,11.70138076
1084,1084,Living Faith Fellowship Church,5510 NW 39th Ave,GAINESVILLE,FL,32606,29.689709999999998,-82.40216600000001,813110,81311008,Religious Organizations,0,1.0,0,1,4273,1656,2181,2092,51%,49%,3052,313,0,812,0,18,78,263,2822,71.42522818,7.32506436,0.0,19.00304236,0.0,0.42124971,1.8254153999999998,6.15492628,2.57,676,1479,1453,1330,40,2122,1994,0,0,24,0,0,104,1487,2708,156,128,32,40,171,64,47,38,0,149,55,201,76,92,148,259,60288,15.328808800000003,11.70138076
1144,1144,Eckankar-Gainesville,PO Box 12015,GAINESVILLE,FL,32604,29.676840000000002,-82.383794,813110,81311008,Religious Organizations,0,2.0,0,2,1345,763,510,835,38%,62%,1177,29,9,92,0,0,38,35,1142,87.50929368,2.15613383,0.66914498,6.840148700000001,0.0,0.0,2.82527881,2.60223048,1.76,130,180,620,830,56,683,582,0,31,0,0,0,70,227,1118,55,52,24,9,50,42,0,24,12,150,40,116,34,32,35,88,52467,20.66914498,7.28624535
1170,1170,Congregation B'Nai Israel,3830 NW 16th Blvd,GAINESVILLE,FL,32605,29.671583000000002,-82.381124,813110,81311026,Religious Organizations,0,20.0,0,20,1345,763,510,835,38%,62%,1177,29,9,92,0,0,38,35,1142,87.50929368,2.15613383,0.66914498,6.840148700000001,0.0,0.0,2.82527881,2.60223048,1.76,130,180,620,830,56,683,582,0,31,0,0,0,70,227,1118,55,52,24,9,50,42,0,24,12,150,40,116,34,32,35,88,52467,20.66914498,7.28624535
1188,1188,Gainesville Baptist Church,3570 NW 16th Blvd,GAINESVILLE,FL,32605,29.669001,-82.376273,813110,81311008,Religious Organizations,0,1.0,0,1,1345,763,510,835,38%,62%,1177,29,9,92,0,0,38,35,1142,87.50929368,2.15613383,0.66914498,6.840148700000001,0.0,0.0,2.82527881,2.60223048,1.76,130,180,620,830,56,683,582,0,31,0,0,0,70,227,1118,55,52,24,9,50,42,0,24,12,150,40,116,34,32,35,88,52467,20.66914498,7.28624535
1257,1257,Zion Evangelical Lutheran Chr,1700 NW 34th St,GAINESVILLE,FL,32605,29.667665999999997,-82.372761,813110,81311008,Religious Organizations,0,1.0,0,1,1345,763,510,835,38%,62%,1177,29,9,92,0,0,38,35,1142,87.50929368,2.15613383,0.66914498,6.840148700000001,0.0,0.0,2.82527881,2.60223048,1.76,130,180,620,830,56,683,582,0,31,0,0,0,70,227,1118,55,52,24,9,50,42,0,24,12,150,40,116,34,32,35,88,52467,20.66914498,7.28624535
1655,1655,Gainesville Chinese Christian,2850 NW 23rd Blvd,GAINESVILLE,FL,32605,29.679759000000004,-82.35104399999999,813110,81311008,Religious Organizations,0,2.0,0,2,1809,835,915,894,51%,49%,1707,26,0,49,0,0,27,124,1598,94.3615257,1.43725815,0.0,2.70867883,0.0,0.0,1.49253731,6.85461581,2.17,265,692,352,1000,38,897,664,13,119,0,36,0,65,472,1314,47,29,16,59,9,24,0,62,25,55,95,152,102,28,75,57,72375,20.50856827,4.47761194
1704,1704,Grace United Methodist Church,9325 W Newberry Rd,GAINESVILLE,FL,32606,29.659287,-82.44127900000001,813110,81311008,Religious Organizations,0,15.0,0,15,1034,443,512,522,50%,50%,946,40,7,31,0,0,10,61,885,91.4893617,3.86847195,0.67698259,2.99806576,0.0,0.0,0.96711799,5.89941973,2.33,211,247,394,364,43,544,527,0,0,0,0,0,17,212,780,0,6,12,0,0,0,4,12,30,28,60,22,71,49,55,94,110729,16.6344294,0.0
1705,1705,Greater Fort Clarke Missionary,9121 W Newberry Rd,GAINESVILLE,FL,32606,29.659240000000004,-82.439675,813110,81311008,Religious Organizations,0,3.0,0,3,1034,443,512,522,50%,50%,946,40,7,31,0,0,10,61,885,91.4893617,3.86847195,0.67698259,2.99806576,0.0,0.0,0.96711799,5.89941973,2.33,211,247,394,364,43,544,527,0,0,0,0,0,17,212,780,0,6,12,0,0,0,4,12,30,28,60,22,71,49,55,94,110729,16.6344294,0.0
2207,2207,North Central Baptist Church,8001 NW 23rd Ave,GAINESVILLE,FL,32606,29.67237,-82.427509,813110,81311008,Religious Organizations,0,12.0,0,12,1490,421,735,755,49%,51%,1290,74,0,63,0,15,48,514,869,86.57718121,4.96644295,0.0,4.22818792,0.0,1.00671141,3.22147651,34.4966443,3.32,407,419,468,392,30,532,473,0,0,7,23,0,29,454,995,25,12,17,22,49,0,0,21,14,42,23,33,14,40,0,109,60924,20.40268456,28.69198312
2209,2209,United Pentecostal Church,8105 NW 23rd Ave,GAINESVILLE,FL,32606,29.672521999999997,-82.42905400000001,813110,81311008,Religious Organizations,0,3.0,0,3,1490,421,735,755,49%,51%,1290,74,0,63,0,15,48,514,869,86.57718121,4.96644295,0.0,4.22818792,0.0,1.00671141,3.22147651,34.4966443,3.32,407,419,468,392,30,532,473,0,0,7,23,0,29,454,995,25,12,17,22,49,0,0,21,14,42,23,33,14,40,0,109,60924,20.40268456,28.69198312
2232,2232,Church of Christ,1034 SE 10th Ave,GAINESVILLE,FL,32601,29.642384000000003,-82.31323499999999,813110,81311008,Religious Organizations,0,20.0,0,20,1422,357,653,769,46%,54%,187,1235,0,0,0,0,0,0,187,13.15049226,86.84950774,0.0,0.0,0.0,0.0,0.0,0.0,3.98,416,249,543,428,42,392,283,0,0,70,0,0,39,354,1030,13,10,34,12,25,73,16,44,0,39,12,28,25,0,0,26,39297,3.44585091,20.81575246
2233,2233,Church of the Living God,219 SE 13th Pl,GAINESVILLE,FL,32601,29.637097999999998,-82.319342,813110,81311021,Religious Organizations,0,1.0,0,1,1422,357,653,769,46%,54%,187,1235,0,0,0,0,0,0,187,13.15049226,86.84950774,0.0,0.0,0.0,0.0,0.0,0.0,3.98,416,249,543,428,42,392,283,0,0,70,0,0,39,354,1030,13,10,34,12,25,73,16,44,0,39,12,28,25,0,0,26,39297,3.44585091,20.81575246
2255,2255,Mt Olive AME Church,721 SE 8th St,GAINESVILLE,FL,32601,29.645018,-82.316168,813110,81311008,Religious Organizations,0,1.0,0,1,1422,357,653,769,46%,54%,187,1235,0,0,0,0,0,0,187,13.15049226,86.84950774,0.0,0.0,0.0,0.0,0.0,0.0,3.98,416,249,543,428,42,392,283,0,0,70,0,0,39,354,1030,13,10,34,12,25,73,16,44,0,39,12,28,25,0,0,26,39297,3.44585091,20.81575246
2260,2260,Oasis of Love Ministries,902 SE 10th Ter,GAINESVILLE,FL,32601,29.643040000000003,-82.312545,813110,81311008,Religious Organizations,0,3.0,0,3,1422,357,653,769,46%,54%,187,1235,0,0,0,0,0,0,187,13.15049226,86.84950774,0.0,0.0,0.0,0.0,0.0,0.0,3.98,416,249,543,428,42,392,283,0,0,70,0,0,39,354,1030,13,10,34,12,25,73,16,44,0,39,12,28,25,0,0,26,39297,3.44585091,20.81575246
2425,2425,Ignite Life Ctr,404 NW 14th Ave,GAINESVILLE,FL,32601,29.665077,-82.329029,813110,81311008,Religious Organizations,0,5.0,0,5,1846,859,688,1158,37%,63%,1235,447,0,46,0,17,101,120,1146,66.90140845,24.21451788,0.0,2.49187432,0.0,0.92091008,5.47128927,6.50054171,2.11,296,970,408,344,28,809,446,0,252,17,76,0,18,821,991,258,106,135,65,10,45,40,54,46,10,42,26,0,0,22,0,18515,6.17551463,49.89094875
2467,2467,Mt Hermon Missionary Bptst,1514 NE 2nd St,GAINESVILLE,FL,32601,29.665992,-82.323382,813110,81311008,Religious Organizations,0,15.0,0,15,1846,859,688,1158,37%,63%,1235,447,0,46,0,17,101,120,1146,66.90140845,24.21451788,0.0,2.49187432,0.0,0.92091008,5.47128927,6.50054171,2.11,296,970,408,344,28,809,446,0,252,17,76,0,18,821,991,258,106,135,65,10,45,40,54,46,10,42,26,0,0,22,0,18515,6.17551463,49.89094875
2603,2603,FAITH NATION,418 NW 8TH AVE,GAINESVILLE,FL,32601,29.659883,-82.329335,813110,81311008,RELIGIOUS ORGANIZATIONS,0,3.0,0,3,1846,859,688,1158,37%,63%,1235,447,0,46,0,17,101,120,1146,66.90140845,24.21451788,0.0,2.49187432,0.0,0.92091008,5.47128927,6.50054171,2.11,296,970,408,344,28,809,446,0,252,17,76,0,18,821,991,258,106,135,65,10,45,40,54,46,10,42,26,0,0,22,0,18515,6.17551463,49.89094875
2666,2666,Patton's Consulting,1102 NW 104th Ter,GAINESVILLE,FL,32606,29.662896000000003,-82.45346500000001,813110,81311007,Religious Organizations,0,3.0,0,3,1811,541,884,927,49%,51%,1421,0,18,228,0,0,144,91,1330,78.4649365,0.0,0.99392601,12.58972943,0.0,0.0,7.95140806,5.02484815,3.35,644,476,520,342,35,711,696,0,15,0,0,0,0,602,1035,0,0,0,0,0,23,33,42,0,23,90,81,101,16,63,69,86850,11.92711209,1.10436223
2672,2672,Westside Baptist Church,10000 W Newberry Rd,GAINESVILLE,FL,32606,29.661669,-82.44866999999999,813110,81311008,Religious Organizations,0,33.0,0,33,1811,541,884,927,49%,51%,1421,0,18,228,0,0,144,91,1330,78.4649365,0.0,0.99392601,12.58972943,0.0,0.0,7.95140806,5.02484815,3.35,644,476,520,342,35,711,696,0,15,0,0,0,0,602,1035,0,0,0,0,0,23,33,42,0,23,90,81,101,16,63,69,86850,11.92711209,1.10436223
2684,2684,Abiding Savior Lutheran Church,9700 W Newberry Rd,GAINESVILLE,FL,32606,29.659999,-82.445514,813110,81311008,Religious Organizations,0,4.0,0,4,3807,1445,1893,1914,50%,50%,2337,719,0,586,0,45,120,261,2135,61.38691883,18.88626215,0.0,15.39269766,0.0,1.1820331,3.15208826,6.85579196,2.63,1021,1363,1010,826,32,1771,1645,0,64,62,0,0,0,1089,2557,128,0,14,23,0,68,214,52,143,267,114,200,111,85,26,0,52793,18.83372734,5.38481744
2706,2706,Covenant Presbyterian Church,1001 NW 98th St,GAINESVILLE,FL,32606,29.662369,-82.445808,813110,81311008,Religious Organizations,0,4.0,0,4,3807,1445,1893,1914,50%,50%,2337,719,0,586,0,45,120,261,2135,61.38691883,18.88626215,0.0,15.39269766,0.0,1.1820331,3.15208826,6.85579196,2.63,1021,1363,1010,826,32,1771,1645,0,64,62,0,0,0,1089,2557,128,0,14,23,0,68,214,52,143,267,114,200,111,85,26,0,52793,18.83372734,5.38481744
2721,2721,Grace Encouragement Ministries,1511 NW 89th Ter,GAINESVILLE,FL,32606,29.66672,-82.437054,813110,81311021,Religious Organizations,0,2.0,0,2,3807,1445,1893,1914,50%,50%,2337,719,0,586,0,45,120,261,2135,61.38691883,18.88626215,0.0,15.39269766,0.0,1.1820331,3.15208826,6.85579196,2.63,1021,1363,1010,826,32,1771,1645,0,64,62,0,0,0,1089,2557,128,0,14,23,0,68,214,52,143,267,114,200,111,85,26,0,52793,18.83372734,5.38481744
2780,2780,Kol Simcha Messianic,PO Box 12749,GAINESVILLE,FL,32604,29.695356,-82.492522,813110,81311008,Religious Organizations,0,2.0,0,2,1445,468,691,754,48%,52%,1282,20,27,50,0,0,66,0,1282,88.71972318,1.38408304,1.86851211,3.46020761,0.0,0.0,4.56747405,0.0,3.09,531,157,567,380,41,525,474,0,0,0,0,0,51,564,859,0,29,0,0,0,0,101,0,0,0,20,181,58,36,27,16,81774,17.92387543,0.0
2803,2803,Countryside Baptist Church,10926 NW 39th Ave,GAINESVILLE,FL,32606,29.690917,-82.45754699999999,813110,81311008,Religious Organizations,0,15.0,0,15,1445,468,691,754,48%,52%,1282,20,27,50,0,0,66,0,1282,88.71972318,1.38408304,1.86851211,3.46020761,0.0,0.0,4.56747405,0.0,3.09,531,157,567,380,41,525,474,0,0,0,0,0,51,564,859,0,29,0,0,0,0,101,0,0,0,20,181,58,36,27,16,81774,17.92387543,0.0
2818,2818,Female Protective Temple,12610 NW 39th Ave,GAINESVILLE,FL,32606,29.690140999999997,-82.476782,813110,81311021,Religious Organizations,0,2.0,0,2,1445,468,691,754,48%,52%,1282,20,27,50,0,0,66,0,1282,88.71972318,1.38408304,1.86851211,3.46020761,0.0,0.0,4.56747405,0.0,3.09,531,157,567,380,41,525,474,0,0,0,0,0,51,564,859,0,29,0,0,0,0,101,0,0,0,20,181,58,36,27,16,81774,17.92387543,0.0
2831,2831,Hope Alliance Church,12610 NW 39th Ave,GAINESVILLE,FL,32606,29.690140999999997,-82.476782,813110,81311008,Religious Organizations,0,2.0,0,2,1445,468,691,754,48%,52%,1282,20,27,50,0,0,66,0,1282,88.71972318,1.38408304,1.86851211,3.46020761,0.0,0.0,4.56747405,0.0,3.09,531,157,567,380,41,525,474,0,0,0,0,0,51,564,859,0,29,0,0,0,0,101,0,0,0,20,181,58,36,27,16,81774,17.92387543,0.0
2908,2908,HANSEN CHR INC,3558 NW 97TH BLVD,GAINESVILLE,FL,32606,29.686047,-82.449779,813110,81311008,RELIGIOUS ORGANIZATIONS,0,2.0,0,2,1445,468,691,754,48%,52%,1282,20,27,50,0,0,66,0,1282,88.71972318,1.38408304,1.86851211,3.46020761,0.0,0.0,4.56747405,0.0,3.09,531,157,567,380,41,525,474,0,0,0,0,0,51,564,859,0,29,0,0,0,0,101,0,0,0,20,181,58,36,27,16,81774,17.92387543,0.0
2911,2911,Wiener Ministries Intl,PO Box 1799,GAINESVILLE,FL,32602,29.659106,-82.39836700000001,813110,81311008,Religious Organizations,0,2.0,0,2,1606,504,973,633,61%,39%,1191,336,0,13,16,0,50,99,1158,74.15940224,20.92154421,0.0,0.80946451,0.99626401,0.0,3.11332503,6.16438356,3.18,164,984,341,234,24,992,727,152,36,14,28,5,30,859,715,50,26,81,32,60,7,5,56,6,22,59,60,28,9,0,3,31071,9.6513076,47.75840598
2969,2969,Temple Shir Shalom-Reform,3855 NW 8th Ave,GAINESVILLE,FL,32605,29.65878,-82.382104,813110,81311041,Religious Organizations,0,4.0,0,4,1606,504,973,633,61%,39%,1191,336,0,13,16,0,50,99,1158,74.15940224,20.92154421,0.0,0.80946451,0.99626401,0.0,3.11332503,6.16438356,3.18,164,984,341,234,24,992,727,152,36,14,28,5,30,859,715,50,26,81,32,60,7,5,56,6,22,59,60,28,9,0,3,31071,9.6513076,47.75840598
3095,3095,Chapel Pastor Richard Parker,3020 NW 30th Ter,GAINESVILLE,FL,32605,29.680853000000003,-82.367835,813110,81311009,Religious Organizations,0,2.0,0,2,1799,702,933,866,52%,48%,1611,42,15,67,0,0,64,131,1498,89.54974986,2.33463035,0.83379655,3.72429127,0.0,0.0,3.55753196,7.28182324,2.56,304,479,566,900,47,804,676,0,17,0,0,34,77,451,1302,19,14,14,39,10,0,48,0,26,27,86,64,92,92,61,110,100400,16.39799889,3.6131184000000003
3100,3100,First Christian Science Church,3010 NW 16th Ave,GAINESVILLE,FL,32605,29.667193,-82.36794599999999,813110,81311008,Religious Organizations,0,2.0,0,2,1799,702,933,866,52%,48%,1611,42,15,67,0,0,64,131,1498,89.54974986,2.33463035,0.83379655,3.72429127,0.0,0.0,3.55753196,7.28182324,2.56,304,479,566,900,47,804,676,0,17,0,0,34,77,451,1302,19,14,14,39,10,0,48,0,26,27,86,64,92,92,61,110,100400,16.39799889,3.6131184000000003
3148,3148,SIMPSONS CHURCH FURNISHINGS,2716 NW 31ST TER,GAINESVILLE,FL,32605,29.677377000000003,-82.368957,813110,81311008,RELIGIOUS ORGANIZATIONS,0,2.0,0,2,1799,702,933,866,52%,48%,1611,42,15,67,0,0,64,131,1498,89.54974986,2.33463035,0.83379655,3.72429127,0.0,0.0,3.55753196,7.28182324,2.56,304,479,566,900,47,804,676,0,17,0,0,34,77,451,1302,19,14,14,39,10,0,48,0,26,27,86,64,92,92,61,110,100400,16.39799889,3.6131184000000003
3154,3154,Church of Christ Glen Springs,2214 NW 31st Ave,GAINESVILLE,FL,32605,29.682268,-82.354353,813110,81311008,Religious Organizations,0,1.0,0,1,1834,902,805,1029,44%,56%,1411,259,18,116,0,20,10,67,1344,76.93565976,14.122137400000002,0.98146129,6.32497274,0.0,1.09051254,0.54525627,3.65321701,2.03,204,800,598,464,33,1238,1132,0,33,18,0,11,44,552,1260,80,12,106,15,51,64,0,41,84,135,36,71,73,31,20,83,49921,19.19302072,19.62922574
3158,3158,First Assembly of God,2925 NW 39th Ave,GAINESVILLE,FL,32605,29.687768,-82.366149,813110,81311008,Religious Organizations,0,31.0,0,31,1834,902,805,1029,44%,56%,1411,259,18,116,0,20,10,67,1344,76.93565976,14.122137400000002,0.98146129,6.32497274,0.0,1.09051254,0.54525627,3.65321701,2.03,204,800,598,464,33,1238,1132,0,33,18,0,11,44,552,1260,80,12,106,15,51,64,0,41,84,135,36,71,73,31,20,83,49921,19.19302072,19.62922574
3169,3169,Seventh-Day Adventist Church,2115 NW 39th Ave,GAINESVILLE,FL,32605,29.687915000000004,-82.352373,813110,81311008,Religious Organizations,0,3.0,0,3,1834,902,805,1029,44%,56%,1411,259,18,116,0,20,10,67,1344,76.93565976,14.122137400000002,0.98146129,6.32497274,0.0,1.09051254,0.54525627,3.65321701,2.03,204,800,598,464,33,1238,1132,0,33,18,0,11,44,552,1260,80,12,106,15,51,64,0,41,84,135,36,71,73,31,20,83,49921,19.19302072,19.62922574
3170,3170,St Andrews Church,2715 NW 39th Ave,GAINESVILLE,FL,32605,29.687401,-82.362833,813110,81311008,Religious Organizations,0,3.0,0,3,1834,902,805,1029,44%,56%,1411,259,18,116,0,20,10,67,1344,76.93565976,14.122137400000002,0.98146129,6.32497274,0.0,1.09051254,0.54525627,3.65321701,2.03,204,800,598,464,33,1238,1132,0,33,18,0,11,44,552,1260,80,12,106,15,51,64,0,41,84,135,36,71,73,31,20,83,49921,19.19302072,19.62922574
3223,3223,Gethsemane Lutheran Church,4011 NW 34th St,GAINESVILLE,FL,32605,29.690383,-82.371595,813110,81311008,Religious Organizations,0,3.0,0,3,724,318,357,367,49%,51%,394,294,0,19,0,0,17,84,361,54.419889500000004,40.60773481,0.0,2.62430939,0.0,0.0,2.3480662999999997,11.60220994,2.28,83,233,204,408,51,455,403,0,0,52,0,0,0,157,552,0,0,0,33,62,0,52,0,15,15,30,47,64,0,0,0,49500,9.116022099999999,0.0
3244,3244,Unitarian Universalist Fllwshp,4225 NW 34th St,GAINESVILLE,FL,32605,29.693914000000003,-82.371012,813110,81311008,Religious Organizations,0,7.0,0,7,724,318,357,367,49%,51%,394,294,0,19,0,0,17,84,361,54.419889500000004,40.60773481,0.0,2.62430939,0.0,0.0,2.3480662999999997,11.60220994,2.28,83,233,204,408,51,455,403,0,0,52,0,0,0,157,552,0,0,0,33,62,0,52,0,15,15,30,47,64,0,0,0,49500,9.116022099999999,0.0
3313,3313,Board Mentors Trust Inc,4423 NW 35th St,GAINESVILLE,FL,32605,29.695287,-82.374399,813110,81311008,Religious Organizations,0,3.0,0,3,2804,1146,1314,1490,47%,53%,2039,210,4,512,0,17,22,347,1709,72.71754636,7.489300999999999,0.14265335,18.2596291,0.0,0.60627675,0.78459344,12.37517832,2.45,579,837,946,884,40,1416,1272,0,26,14,0,86,18,730,2010,56,31,37,65,49,114,25,75,60,85,33,185,162,52,85,32,57500,14.87161198,15.47788873
3322,3322,Harvest Christian Church,4820 NW 34th St,GAINESVILLE,FL,32605,29.699301000000002,-82.371808,813110,81311008,Religious Organizations,0,3.0,0,3,2804,1146,1314,1490,47%,53%,2039,210,4,512,0,17,22,347,1709,72.71754636,7.489300999999999,0.14265335,18.2596291,0.0,0.60627675,0.78459344,12.37517832,2.45,579,837,946,884,40,1416,1272,0,26,14,0,86,18,730,2010,56,31,37,65,49,114,25,75,60,85,33,185,162,52,85,32,57500,14.87161198,15.47788873
3404,3404,Pine Grove Baptist Church,4200 NW 39th Ave,GAINESVILLE,FL,32606,29.689063,-82.387704,813110,81311008,Religious Organizations,0,2.0,0,2,2804,1146,1314,1490,47%,53%,2039,210,4,512,0,17,22,347,1709,72.71754636,7.489300999999999,0.14265335,18.2596291,0.0,0.60627675,0.78459344,12.37517832,2.45,579,837,946,884,40,1416,1272,0,26,14,0,86,18,730,2010,56,31,37,65,49,114,25,75,60,85,33,185,162,52,85,32,57500,14.87161198,15.47788873
3458,3458,Creekside Community Church,2640 NW 39th Ave,GAINESVILLE,FL,32605,29.689032,-82.36205,813110,81311008,Religious Organizations,0,9.0,0,9,1830,734,811,1019,44%,56%,1301,419,0,110,0,0,0,27,1274,71.09289617,22.89617486,0.0,6.01092896,0.0,0.0,0.0,1.47540984,2.49,571,477,661,242,34,894,792,0,17,37,17,0,31,557,1158,27,63,20,18,54,37,28,106,27,22,160,74,67,31,0,0,46296,12.34972678,22.73224044
3470,3470,Santa Fe River Baptist Assn,2630 NW 39th Ave,GAINESVILLE,FL,32605,29.688981,-82.361623,813110,81311008,Religious Organizations,0,5.0,0,5,1830,734,811,1019,44%,56%,1301,419,0,110,0,0,0,27,1274,71.09289617,22.89617486,0.0,6.01092896,0.0,0.0,0.0,1.47540984,2.49,571,477,661,242,34,894,792,0,17,37,17,0,31,557,1158,27,63,20,18,54,37,28,106,27,22,160,74,67,31,0,0,46296,12.34972678,22.73224044
3473,3473,CALVARY BAPTIST CHURCH,2630 NW 39TH AVE,GAINESVILLE,FL,32605,29.688981,-82.361623,813110,81311008,RELIGIOUS ORGANIZATIONS,0,3.0,0,3,1830,734,811,1019,44%,56%,1301,419,0,110,0,0,0,27,1274,71.09289617,22.89617486,0.0,6.01092896,0.0,0.0,0.0,1.47540984,2.49,571,477,661,242,34,894,792,0,17,37,17,0,31,557,1158,27,63,20,18,54,37,28,106,27,22,160,74,67,31,0,0,46296,12.34972678,22.73224044
3588,3588,First Church of the Nazarene,5020 NW 23rd Ave,GAINESVILLE,FL,32606,29.675219,-82.39636999999999,813110,81311008,Religious Organizations,0,2.0,0,2,2245,898,1183,1062,53%,47%,1558,348,0,110,0,76,153,291,1459,69.3986637,15.50111359,0.0,4.89977728,0.0,3.38530067,6.81514477,12.96213808,2.47,403,746,850,492,40,1061,1022,25,0,3,0,0,11,684,1485,21,0,18,0,81,140,63,56,19,150,100,100,45,59,6,40,54063,17.19376392,2.93986637
3695,3695,North Gainesville Baptist Chr,6203 NW 39th Ave,GAINESVILLE,FL,32606,29.687797999999997,-82.408535,813110,81311008,Religious Organizations,0,1.0,0,1,2245,898,1183,1062,53%,47%,1558,348,0,110,0,76,153,291,1459,69.3986637,15.50111359,0.0,4.89977728,0.0,3.38530067,6.81514477,12.96213808,2.47,403,746,850,492,40,1061,1022,25,0,3,0,0,11,684,1485,21,0,18,0,81,140,63,56,19,150,100,100,45,59,6,40,54063,17.19376392,2.93986637
3697,3697,Northwest Baptist Church,5514 NW 23rd Ave,GAINESVILLE,FL,32606,29.675227000000003,-82.402132,813110,81311008,Religious Organizations,0,10.0,0,10,2245,898,1183,1062,53%,47%,1558,348,0,110,0,76,153,291,1459,69.3986637,15.50111359,0.0,4.89977728,0.0,3.38530067,6.81514477,12.96213808,2.47,403,746,850,492,40,1061,1022,25,0,3,0,0,11,684,1485,21,0,18,0,81,140,63,56,19,150,100,100,45,59,6,40,54063,17.19376392,2.93986637
3731,3731,Second Morning Star Missionary,2830 NW 51st St,GAINESVILLE,FL,32606,29.682438,-82.396895,813110,81311008,Religious Organizations,0,1.0,0,1,2245,898,1183,1062,53%,47%,1558,348,0,110,0,76,153,291,1459,69.3986637,15.50111359,0.0,4.89977728,0.0,3.38530067,6.81514477,12.96213808,2.47,403,746,850,492,40,1061,1022,25,0,3,0,0,11,684,1485,21,0,18,0,81,140,63,56,19,150,100,100,45,59,6,40,54063,17.19376392,2.93986637
3853,3853,University City Church-Christ,4626 NW 8th Ave,GAINESVILLE,FL,32605,29.659993,-82.39258000000001,813110,81311008,Religious Organizations,0,4.0,0,4,1791,629,853,938,48%,52%,1447,139,6,180,0,0,19,0,1447,80.79285315,7.76102736,0.33500838,10.05025126,0.0,0.0,1.06085985,0.0,2.85,305,535,493,916,44,1063,957,0,0,0,30,16,60,505,1249,23,0,15,0,0,46,25,16,29,15,18,89,96,157,71,29,104554,25.90731435,2.56839754
3864,3864,FAMILY UNITY OUTREACH MINISTRY,4721 NW 13TH AVE,GAINESVILLE,FL,32605,29.664196999999998,-82.393759,813110,81311021,RELIGIOUS ORGANIZATIONS,0,2.0,0,2,1791,629,853,938,48%,52%,1447,139,6,180,0,0,19,0,1447,80.79285315,7.76102736,0.33500838,10.05025126,0.0,0.0,1.06085985,0.0,2.85,305,535,493,916,44,1063,957,0,0,0,30,16,60,505,1249,23,0,15,0,0,46,25,16,29,15,18,89,96,157,71,29,104554,25.90731435,2.56839754
3888,3888,Banner Communication,4509 NW 23rd Ave # 14,GAINESVILLE,FL,32606,29.674073999999997,-82.391409,813110,81311021,Religious Organizations,0,1.0,0,1,1791,629,853,938,48%,52%,1447,139,6,180,0,0,19,0,1447,80.79285315,7.76102736,0.33500838,10.05025126,0.0,0.0,1.06085985,0.0,2.85,305,535,493,916,44,1063,957,0,0,0,30,16,60,505,1249,23,0,15,0,0,46,25,16,29,15,18,89,96,157,71,29,104554,25.90731435,2.56839754
3898,3898,St Michael's Episcopal Church,4315 NW 23rd Ave,GAINESVILLE,FL,32606,29.673425,-82.389394,813110,81311008,Religious Organizations,0,6.0,0,6,1791,629,853,938,48%,52%,1447,139,6,180,0,0,19,0,1447,80.79285315,7.76102736,0.33500838,10.05025126,0.0,0.0,1.06085985,0.0,2.85,305,535,493,916,44,1063,957,0,0,0,30,16,60,505,1249,23,0,15,0,0,46,25,16,29,15,18,89,96,157,71,29,104554,25.90731435,2.56839754
3944,3944,Abundant Grace Community Chr,12505 NW 39th Ave,GAINESVILLE,FL,32606,29.688284000000003,-82.4756,813110,81311008,Religious Organizations,0,2.0,0,2,4184,1605,1864,2320,45%,55%,3410,237,0,335,0,8,194,504,3025,81.50095602,5.66443595,0.0,8.00669216,0.0,0.19120459,4.63671128,12.0458891,2.61,945,1010,1390,1678,42,2051,1962,0,0,0,0,21,68,1161,2965,88,0,42,59,62,67,20,77,32,43,220,359,144,59,142,191,79860,23.15965583,4.254302099999999
3956,3956,First Baptist Church,14105 NW 39th Ave,GAINESVILLE,FL,32606,29.688086,-82.49359,813110,81311008,Religious Organizations,0,17.0,0,17,4184,1605,1864,2320,45%,55%,3410,237,0,335,0,8,194,504,3025,81.50095602,5.66443595,0.0,8.00669216,0.0,0.19120459,4.63671128,12.0458891,2.61,945,1010,1390,1678,42,2051,1962,0,0,0,0,21,68,1161,2965,88,0,42,59,62,67,20,77,32,43,220,359,144,59,142,191,79860,23.15965583,4.254302099999999
3961,3961,Gainesville Spanish SDA,12909 NW 39th Ave,GAINESVILLE,FL,32606,29.688208000000003,-82.480788,813110,81311008,Religious Organizations,0,1.0,0,1,4184,1605,1864,2320,45%,55%,3410,237,0,335,0,8,194,504,3025,81.50095602,5.66443595,0.0,8.00669216,0.0,0.19120459,4.63671128,12.0458891,2.61,945,1010,1390,1678,42,2051,1962,0,0,0,0,21,68,1161,2965,88,0,42,59,62,67,20,77,32,43,220,359,144,59,142,191,79860,23.15965583,4.254302099999999
4016,4016,Friendship Baptist Church,426 NW 2nd St,GAINESVILLE,FL,32601,29.655407,-82.326751,813110,81311008,Religious Organizations,0,3.0,0,3,747,314,334,413,45%,55%,400,316,0,19,0,12,0,93,320,53.54752343,42.30254351,0.0,2.54350736,0.0,1.6064257,0.0,12.4497992,2.33,88,432,161,132,32,418,268,0,150,0,0,0,0,361,373,65,50,43,37,12,0,12,0,27,38,0,13,0,17,0,0,17442,3.74832664,25.23616734
4023,4023,JCON Worship & Praise Temple,436 NW 2nd St,GAINESVILLE,FL,32601,29.655706,-82.32696899999999,813110,81311008,Religious Organizations,0,2.0,0,2,747,314,334,413,45%,55%,400,316,0,19,0,12,0,93,320,53.54752343,42.30254351,0.0,2.54350736,0.0,1.6064257,0.0,12.4497992,2.33,88,432,161,132,32,418,268,0,150,0,0,0,0,361,373,65,50,43,37,12,0,12,0,27,38,0,13,0,17,0,0,17442,3.74832664,25.23616734
4026,4026,Mt Pleasant United Methodist,630 NW 2nd St,GAINESVILLE,FL,32601,29.657613,-82.327026,813110,81311008,Religious Organizations,0,2.0,0,2,747,314,334,413,45%,55%,400,316,0,19,0,12,0,93,320,53.54752343,42.30254351,0.0,2.54350736,0.0,1.6064257,0.0,12.4497992,2.33,88,432,161,132,32,418,268,0,150,0,0,0,0,361,373,65,50,43,37,12,0,12,0,27,38,0,13,0,17,0,0,17442,3.74832664,25.23616734
4045,4045,Williams Temple Church of God,628 NW 7th Ave,GAINESVILLE,FL,32601,29.657946000000003,-82.33170799999999,813110,81311008,Religious Organizations,0,2.0,0,2,747,314,334,413,45%,55%,400,316,0,19,0,12,0,93,320,53.54752343,42.30254351,0.0,2.54350736,0.0,1.6064257,0.0,12.4497992,2.33,88,432,161,132,32,418,268,0,150,0,0,0,0,361,373,65,50,43,37,12,0,12,0,27,38,0,13,0,17,0,0,17442,3.74832664,25.23616734
4189,4189,Gainesville Community Ministry,238 SW 4th Ave,GAINESVILLE,FL,32601,29.648356,-82.32798000000001,813110,81311021,Religious Organizations,0,20.0,0,20,1183,353,478,705,40%,60%,777,265,0,22,0,32,87,233,643,65.68047337,22.40067625,0.0,1.85967878,0.0,2.70498732,7.35418428,19.69568893,3.31,78,806,251,96,22,590,350,0,26,52,134,28,0,600,574,61,37,47,13,0,16,17,9,40,86,15,12,0,0,0,0,37868,4.98732037,47.92899408
4209,4209,Shady Grove Primitive,804 SW 5th St,GAINESVILLE,FL,32601,29.644658000000003,-82.329792,813110,81311008,Religious Organizations,0,3.0,0,3,1183,353,478,705,40%,60%,777,265,0,22,0,32,87,233,643,65.68047337,22.40067625,0.0,1.85967878,0.0,2.70498732,7.35418428,19.69568893,3.31,78,806,251,96,22,590,350,0,26,52,134,28,0,600,574,61,37,47,13,0,16,17,9,40,86,15,12,0,0,0,0,37868,4.98732037,47.92899408
4341,4341,CHRISTIAN CAMPUS HOUSE,20 NW 12TH TER,GAINESVILLE,FL,32601,29.65274,-82.337861,813110,81311008,RELIGIOUS ORGANIZATIONS,0,3.0,0,3,975,331,755,220,77%,23%,877,67,0,13,0,0,18,174,721,89.94871795,6.87179487,0.0,1.33333333,0.0,0.0,1.84615385,17.84615385,2.8,0,975,0,0,22,480,297,25,118,0,40,0,0,927,48,44,15,52,109,14,70,14,0,0,0,0,0,13,0,0,0,21434,2.97435897,75.18878101
4351,4351,GAINESVILLE COMMUNITY MINISTRY,818 W UNIVERSITY AVE,GAINESVILLE,FL,32601,29.652540999999996,-82.33345200000001,813110,81311021,RELIGIOUS ORGANIZATIONS,0,2.0,0,2,975,331,755,220,77%,23%,877,67,0,13,0,0,18,174,721,89.94871795,6.87179487,0.0,1.33333333,0.0,0.0,1.84615385,17.84615385,2.8,0,975,0,0,22,480,297,25,118,0,40,0,0,927,48,44,15,52,109,14,70,14,0,0,0,0,0,13,0,0,0,21434,2.97435897,75.18878101
4393,4393,Church Of Jesus Christ Of LDS,1220 SW 5th Ave,GAINESVILLE,FL,32601,29.647783,-82.33821800000001,813110,81311008,Religious Organizations,0,4.0,0,4,2767,666,703,2064,25%,75%,2368,262,0,40,21,21,55,174,2209,85.58005059999999,9.46873871,0.0,1.44560896,0.75894471,0.75894471,1.98771232,6.28839899,2.82,6,2738,23,0,21,798,165,65,207,77,214,3,67,2666,101,393,71,0,54,0,30,15,12,16,46,15,0,14,0,0,0,7541,4.77050958,85.76
4462,4462,Church Of Jesus Christ Of LDS,3745 NW 16th Blvd,GAINESVILLE,FL,32605,29.669235999999998,-82.380044,813110,81311008,Religious Organizations,0,2.0,0,2,1971,863,986,985,50%,50%,1704,142,7,63,0,55,0,65,1704,86.45357686,7.20446474,0.35514967,3.19634703,0.0,2.79046169,0.0,3.29781837,2.28,273,603,643,904,46,944,650,39,104,34,0,13,104,498,1417,87,11,0,45,15,38,0,15,100,74,155,111,76,72,25,39,67431,19.12734652,6.3419584
4497,4497,Richard Parker,931 NW 42nd Ter,GAINESVILLE,FL,32605,29.660785999999998,-82.388503,813110,81311009,Religious Organizations,0,1.0,0,1,1971,863,986,985,50%,50%,1704,142,7,63,0,55,0,65,1704,86.45357686,7.20446474,0.35514967,3.19634703,0.0,2.79046169,0.0,3.29781837,2.28,273,603,643,904,46,944,650,39,104,34,0,13,104,498,1417,87,11,0,45,15,38,0,15,100,74,155,111,76,72,25,39,67431,19.12734652,6.3419584
4506,4506,Vineyard Christian Fellowship,3536 NW 8th Ave,GAINESVILLE,FL,32605,29.659872999999997,-82.376249,813110,81311008,Religious Organizations,0,3.0,0,3,1971,863,986,985,50%,50%,1704,142,7,63,0,55,0,65,1704,86.45357686,7.20446474,0.35514967,3.19634703,0.0,2.79046169,0.0,3.29781837,2.28,273,603,643,904,46,944,650,39,104,34,0,13,104,498,1417,87,11,0,45,15,38,0,15,100,74,155,111,76,72,25,39,67431,19.12734652,6.3419584
4508,4508,Westwood Hills Church of God,3440 NW 15th Pl,GAINESVILLE,FL,32605,29.666653000000004,-82.37388100000001,813110,81311008,Religious Organizations,0,20.0,0,20,1971,863,986,985,50%,50%,1704,142,7,63,0,55,0,65,1704,86.45357686,7.20446474,0.35514967,3.19634703,0.0,2.79046169,0.0,3.29781837,2.28,273,603,643,904,46,944,650,39,104,34,0,13,104,498,1417,87,11,0,45,15,38,0,15,100,74,155,111,76,72,25,39,67431,19.12734652,6.3419584
4555,4555,Baha'I Spiritual Assembly,4451 NW 19th St,GAINESVILLE,FL,32605,29.695195000000002,-82.346886,813110,81311021,Religious Organizations,0,2.0,0,2,1846,838,909,937,49%,51%,1599,103,10,98,0,19,17,159,1452,86.61971831,5.57963164,0.54171181,5.30877573,0.0,1.02925244,0.92091008,8.61321777,2.17,346,631,671,396,38,990,825,0,18,40,46,26,35,454,1306,74,66,59,48,12,36,58,19,84,85,84,74,73,22,33,11,48532,11.21343445,28.38569881
4559,4559,Church of Christ 39th Avenue,1811 NW 39th Ave,GAINESVILLE,FL,32605,29.687903000000002,-82.34635899999999,813110,81311008,Religious Organizations,0,1.0,0,1,1846,838,909,937,49%,51%,1599,103,10,98,0,19,17,159,1452,86.61971831,5.57963164,0.54171181,5.30877573,0.0,1.02925244,0.92091008,8.61321777,2.17,346,631,671,396,38,990,825,0,18,40,46,26,35,454,1306,74,66,59,48,12,36,58,19,84,85,84,74,73,22,33,11,48532,11.21343445,28.38569881
4565,4565,Iglesia Hispana Gainesville,3508 NW 19th St,GAINESVILLE,FL,32605,29.685269,-82.348007,813110,81311008,Religious Organizations,0,2.0,0,2,1846,838,909,937,49%,51%,1599,103,10,98,0,19,17,159,1452,86.61971831,5.57963164,0.54171181,5.30877573,0.0,1.02925244,0.92091008,8.61321777,2.17,346,631,671,396,38,990,825,0,18,40,46,26,35,454,1306,74,66,59,48,12,36,58,19,84,85,84,74,73,22,33,11,48532,11.21343445,28.38569881
4571,4571,Ridgeview Baptist Church,3508 NW 19th St,GAINESVILLE,FL,32605,29.685269,-82.348007,813110,81311008,Religious Organizations,0,2.0,0,2,1846,838,909,937,49%,51%,1599,103,10,98,0,19,17,159,1452,86.61971831,5.57963164,0.54171181,5.30877573,0.0,1.02925244,0.92091008,8.61321777,2.17,346,631,671,396,38,990,825,0,18,40,46,26,35,454,1306,74,66,59,48,12,36,58,19,84,85,84,74,73,22,33,11,48532,11.21343445,28.38569881
4572,4572,A TIME-REFRESHING WOMEN'S,1631 NW 43RD AVE,GAINESVILLE,FL,32605,29.693469,-82.34408,813110,81311008,RELIGIOUS ORGANIZATIONS,0,2.0,0,2,1846,838,909,937,49%,51%,1599,103,10,98,0,19,17,159,1452,86.61971831,5.57963164,0.54171181,5.30877573,0.0,1.02925244,0.92091008,8.61321777,2.17,346,631,671,396,38,990,825,0,18,40,46,26,35,454,1306,74,66,59,48,12,36,58,19,84,85,84,74,73,22,33,11,48532,11.21343445,28.38569881
4608,4608,Church Of Jesus Christ Of LDS,7231 NW 39th Ave,GAINESVILLE,FL,32606,29.687796999999996,-82.419949,813110,81311008,Religious Organizations,0,2.0,0,2,4107,1718,2333,1774,57%,43%,2580,1158,0,141,0,52,176,337,2402,62.81957633,28.19576333,0.0,3.43316289,0.0,1.266131,4.28536645,8.2055028,2.37,556,1731,880,1880,31,1655,1447,12,23,92,38,0,43,1686,2406,342,37,183,125,181,49,215,17,13,64,171,145,85,28,57,6,28125,13.44046749,36.71779888
4628,4628,First Christian Church,3411 NW 83rd St,GAINESVILLE,FL,32606,29.684620000000002,-82.42958399999999,813110,81311008,Religious Organizations,0,3.0,0,3,4107,1718,2333,1774,57%,43%,2580,1158,0,141,0,52,176,337,2402,62.81957633,28.19576333,0.0,3.43316289,0.0,1.266131,4.28536645,8.2055028,2.37,556,1731,880,1880,31,1655,1447,12,23,92,38,0,43,1686,2406,342,37,183,125,181,49,215,17,13,64,171,145,85,28,57,6,28125,13.44046749,36.71779888
4634,4634,Gainesville Church of God,7003 NW 39th Ave,GAINESVILLE,FL,32606,29.687694,-82.416803,813110,81311008,Religious Organizations,0,4.0,0,4,4107,1718,2333,1774,57%,43%,2580,1158,0,141,0,52,176,337,2402,62.81957633,28.19576333,0.0,3.43316289,0.0,1.266131,4.28536645,8.2055028,2.37,556,1731,880,1880,31,1655,1447,12,23,92,38,0,43,1686,2406,342,37,183,125,181,49,215,17,13,64,171,145,85,28,57,6,28125,13.44046749,36.71779888
4640,4640,Greater Liberty Hill UMC,7010 NW 23rd Ave,GAINESVILLE,FL,32606,29.674625,-82.423867,813110,81311008,Religious Organizations,0,3.0,0,3,4107,1718,2333,1774,57%,43%,2580,1158,0,141,0,52,176,337,2402,62.81957633,28.19576333,0.0,3.43316289,0.0,1.266131,4.28536645,8.2055028,2.37,556,1731,880,1880,31,1655,1447,12,23,92,38,0,43,1686,2406,342,37,183,125,181,49,215,17,13,64,171,145,85,28,57,6,28125,13.44046749,36.71779888
4728,4728,Unity of Gainesville Church,8801 NW 39th Ave,GAINESVILLE,FL,32606,29.688285999999998,-82.43584399999999,813110,81311008,Religious Organizations,0,2.0,0,2,4107,1718,2333,1774,57%,43%,2580,1158,0,141,0,52,176,337,2402,62.81957633,28.19576333,0.0,3.43316289,0.0,1.266131,4.28536645,8.2055028,2.37,556,1731,880,1880,31,1655,1447,12,23,92,38,0,43,1686,2406,342,37,183,125,181,49,215,17,13,64,171,145,85,28,57,6,28125,13.44046749,36.71779888
4751,4751,GREATER LIBERTY HILL,7600 NW 23RD AVE,GAINESVILLE,FL,32606,29.674625,-82.423867,813110,81311008,RELIGIOUS ORGANIZATIONS,0,2.0,0,2,4107,1718,2333,1774,57%,43%,2580,1158,0,141,0,52,176,337,2402,62.81957633,28.19576333,0.0,3.43316289,0.0,1.266131,4.28536645,8.2055028,2.37,556,1731,880,1880,31,1655,1447,12,23,92,38,0,43,1686,2406,342,37,183,125,181,49,215,17,13,64,171,145,85,28,57,6,28125,13.44046749,36.71779888
5048,5048,Faith United Methodist Church,3701 NE 15th St,GAINESVILLE,FL,32609,29.686737,-82.305137,813110,81311008,Religious Organizations,0,3.0,0,3,955,354,342,613,36%,64%,299,590,0,0,0,27,39,363,157,31.30890052,61.78010471,0.0,0.0,0.0,2.82722513,4.08376963,38.010471200000005,2.68,295,291,335,68,23,300,276,0,0,24,0,0,0,258,613,193,29,0,13,11,18,4,27,7,12,13,8,19,0,0,0,7895,0.94240838,58.95287958
5104,5104,Promise Driven Inc,2406 NE Waldo Rd,GAINESVILLE,FL,32609,29.674609999999998,-82.29641,813110,81311021,Religious Organizations,0,2.0,0,2,955,354,342,613,36%,64%,299,590,0,0,0,27,39,363,157,31.30890052,61.78010471,0.0,0.0,0.0,2.82722513,4.08376963,38.010471200000005,2.68,295,291,335,68,23,300,276,0,0,24,0,0,0,258,613,193,29,0,13,11,18,4,27,7,12,13,8,19,0,0,0,7895,0.94240838,58.95287958
5152,5152,Gainsville Family Worship Ctr,1938 NE Waldo Rd,GAINESVILLE,FL,32609,29.670021000000002,-82.29992800000001,813110,81311008,Religious Organizations,0,2.0,0,2,965,415,398,567,41%,59%,349,616,0,0,0,0,0,137,212,36.16580311,63.83419689,0.0,0.0,0.0,0.0,0.0,14.19689119,2.33,58,296,555,112,45,658,581,0,0,54,0,0,23,182,783,38,40,0,10,96,12,0,0,36,25,68,0,90,0,0,0,45799,23.73056995,11.70984456
5159,5159,Passage Family Church,2020 NE 15th St,GAINESVILLE,FL,32609,29.671788,-82.306531,813110,81311008,Religious Organizations,0,5.0,0,5,965,415,398,567,41%,59%,349,616,0,0,0,0,0,137,212,36.16580311,63.83419689,0.0,0.0,0.0,0.0,0.0,14.19689119,2.33,58,296,555,112,45,658,581,0,0,54,0,0,23,182,783,38,40,0,10,96,12,0,0,36,25,68,0,90,0,0,0,45799,23.73056995,11.70984456
5168,5168,ALLIANCE OF DIVINE LOVE I,1943 NE 17TH TER,GAINESVILLE,FL,32609,29.670553,-82.30291700000001,813110,81311008,RELIGIOUS ORGANIZATIONS,0,2.0,0,2,965,415,398,567,41%,59%,349,616,0,0,0,0,0,137,212,36.16580311,63.83419689,0.0,0.0,0.0,0.0,0.0,14.19689119,2.33,58,296,555,112,45,658,581,0,0,54,0,0,23,182,783,38,40,0,10,96,12,0,0,36,25,68,0,90,0,0,0,45799,23.73056995,11.70984456
5183,5183,Gainesville Church of Christ,1001 NE 28th Ave,GAINESVILLE,FL,32609,29.676790000000004,-82.313811,813110,81311008,Religious Organizations,0,1.0,0,1,3012,677,1370,1642,45%,55%,395,2202,0,11,0,0,404,39,395,13.11420983,73.10756972,0.0,0.36520584,0.0,0.0,13.41301461,1.29482072,4.44,1255,801,824,264,24,896,782,0,70,0,31,0,13,869,1859,16,39,41,77,12,45,106,7,0,180,56,63,0,23,0,12,43393,2.68924303,16.33466135
5196,5196,Landmark Holy Temple of God,1220 NE 23rd Ave,GAINESVILLE,FL,32609,29.674345000000002,-82.309599,813110,81311008,Religious Organizations,0,8.0,0,8,3012,677,1370,1642,45%,55%,395,2202,0,11,0,0,404,39,395,13.11420983,73.10756972,0.0,0.36520584,0.0,0.0,13.41301461,1.29482072,4.44,1255,801,824,264,24,896,782,0,70,0,31,0,13,869,1859,16,39,41,77,12,45,106,7,0,180,56,63,0,23,0,12,43393,2.68924303,16.33466135
5202,5202,New Creations Fellowship Chr,2500 NE 15th St,GAINESVILLE,FL,32609,29.675939,-82.30588,813110,81311008,Religious Organizations,0,3.0,0,3,3012,677,1370,1642,45%,55%,395,2202,0,11,0,0,404,39,395,13.11420983,73.10756972,0.0,0.36520584,0.0,0.0,13.41301461,1.29482072,4.44,1255,801,824,264,24,896,782,0,70,0,31,0,13,869,1859,16,39,41,77,12,45,106,7,0,180,56,63,0,23,0,12,43393,2.68924303,16.33466135
5203,5203,New Life in Christ Believers,680 NE 23rd Ave,GAINESVILLE,FL,32609,29.674204,-82.318496,813110,81311008,Religious Organizations,0,2.0,0,2,3012,677,1370,1642,45%,55%,395,2202,0,11,0,0,404,39,395,13.11420983,73.10756972,0.0,0.36520584,0.0,0.0,13.41301461,1.29482072,4.44,1255,801,824,264,24,896,782,0,70,0,31,0,13,869,1859,16,39,41,77,12,45,106,7,0,180,56,63,0,23,0,12,43393,2.68924303,16.33466135
5280,5280,HOUSE A FIRE MINISTRIES INC,4406 NW 77TH TER,GAINESVILLE,FL,32606,29.693206,-82.424806,813110,81311008,RELIGIOUS ORGANIZATIONS,0,2.0,0,2,4273,1656,2181,2092,51%,49%,3052,313,0,812,0,18,78,263,2822,71.42522818,7.32506436,0.0,19.00304236,0.0,0.42124971,1.8254153999999998,6.15492628,2.57,676,1479,1453,1330,40,2122,1994,0,0,24,0,0,104,1487,2708,156,128,32,40,171,64,47,38,0,149,55,201,76,92,148,259,60288,15.328808800000003,11.70138076
5317,5317,Church of God By Faith,6901 NE 57th St,GAINESVILLE,FL,32609,29.7174,-82.25752299999999,813110,81311008,Religious Organizations,0,5.0,0,5,737,271,364,373,49%,51%,508,158,0,20,0,0,51,33,506,68.92808684,21.43826323,0.0,2.71370421,0.0,0.0,6.91994573,4.47761194,2.72,114,190,244,378,48,251,224,0,0,0,0,5,22,87,635,22,8,7,31,11,8,0,34,17,24,50,48,4,0,7,0,47132,7.46268657,19.13161465
5567,5567,New Beginnings Church of God,2800 NE 59th St,GAINESVILLE,FL,32609,29.677252000000003,-82.251475,813110,81311008,Religious Organizations,0,1.0,0,1,1790,150,1454,336,81%,19%,586,1145,15,0,0,29,15,113,501,32.73743017,63.96648045,0.83798883,0.0,0.0,1.62011173,0.83798883,6.31284916,2.71,75,1004,653,116,36,202,173,0,0,29,0,0,0,119,1671,27,25,7,19,0,5,4,0,5,14,12,0,28,0,4,0,24605,2.45810056,47.96296296
5570,5570,Tabernacle of the Enlightened,2505 NE 69th Ter,GAINESVILLE,FL,32609,29.676018,-82.24488199999999,813110,81311008,Religious Organizations,0,2.0,0,2,1790,150,1454,336,81%,19%,586,1145,15,0,0,29,15,113,501,32.73743017,63.96648045,0.83798883,0.0,0.0,1.62011173,0.83798883,6.31284916,2.71,75,1004,653,116,36,202,173,0,0,29,0,0,0,119,1671,27,25,7,19,0,5,4,0,5,14,12,0,28,0,4,0,24605,2.45810056,47.96296296
5627,5627,Southwest United Methodist Chr,3143 SW 41st Pl,GAINESVILLE,FL,32608,29.613115999999998,-82.357957,813110,81311008,Religious Organizations,0,1.0,0,1,1271,638,719,552,57%,43%,636,341,27,197,0,11,59,136,534,50.0393391,26.82926829,2.12431157,15.49960661,0.0,0.86546027,4.64201416,10.70023603,1.99,83,1001,187,0,25,714,607,7,13,74,0,0,13,663,608,212,63,29,50,73,0,42,36,13,18,27,31,9,35,0,0,22917,7.23839496,49.48859166
5667,5667,Fairbanks Baptist Church,5709 NE 78th Pl,GAINESVILLE,FL,32609,29.725474,-82.25705699999999,813110,81311008,Religious Organizations,0,3.0,0,3,645,275,233,412,36%,64%,595,50,0,0,0,0,0,0,595,92.24806202,7.75193798,0.0,0.0,0.0,0.0,0.0,0.0,2.35,61,175,312,194,47,335,335,0,0,0,0,0,0,79,549,19,15,0,33,23,33,10,0,0,37,52,36,17,0,0,0,54375,10.23255814,10.3875969
5716,5716,Faith Tabernacle Church,5505 SW 63rd Blvd,GAINESVILLE,FL,32608,29.603067,-82.40655699999999,813110,81311008,Religious Organizations,0,33.0,0,33,1891,875,861,1030,46%,54%,1356,460,5,15,0,11,44,131,1251,71.70809096,24.32575357,0.26441036,0.79323109,0.0,0.5817028000000001,2.32681121,6.92755156,2.15,438,394,718,682,46,862,754,0,0,40,14,0,48,368,1376,79,74,61,46,42,66,39,22,19,36,102,37,83,59,33,77,46932,16.49920677,16.86938128
5730,5730,Jehovah's Witnesses,5707 SW Archer Rd,GAINESVILLE,FL,32608,29.606978,-82.404067,813110,81311008,Religious Organizations,0,3.0,0,3,1891,875,861,1030,46%,54%,1356,460,5,15,0,11,44,131,1251,71.70809096,24.32575357,0.26441036,0.79323109,0.0,0.5817028000000001,2.32681121,6.92755156,2.15,438,394,718,682,46,862,754,0,0,40,14,0,48,368,1376,79,74,61,46,42,66,39,22,19,36,102,37,83,59,33,77,46932,16.49920677,16.86938128
5736,5736,New Salem Baptist Church,5707 SW 62nd Ave,GAINESVILLE,FL,32608,29.596701,-82.40298,813110,81311008,Religious Organizations,0,3.0,0,3,1891,875,861,1030,46%,54%,1356,460,5,15,0,11,44,131,1251,71.70809096,24.32575357,0.26441036,0.79323109,0.0,0.5817028000000001,2.32681121,6.92755156,2.15,438,394,718,682,46,862,754,0,0,40,14,0,48,368,1376,79,74,61,46,42,66,39,22,19,36,102,37,83,59,33,77,46932,16.49920677,16.86938128
5758,5758,Wesley Chapel United Methodist,5820 SW 63rd Ln,GAINESVILLE,FL,32608,29.596039,-82.405556,813110,81311008,Religious Organizations,0,3.0,0,3,1891,875,861,1030,46%,54%,1356,460,5,15,0,11,44,131,1251,71.70809096,24.32575357,0.26441036,0.79323109,0.0,0.5817028000000001,2.32681121,6.92755156,2.15,438,394,718,682,46,862,754,0,0,40,14,0,48,368,1376,79,74,61,46,42,66,39,22,19,36,102,37,83,59,33,77,46932,16.49920677,16.86938128
5798,5798,TOMMIE GEORGE MINISTRIES,6606 SW 59TH ST,GAINESVILLE,FL,32608,29.591953000000004,-82.406768,813110,81311021,RELIGIOUS ORGANIZATIONS,0,2.0,0,2,1891,875,861,1030,46%,54%,1356,460,5,15,0,11,44,131,1251,71.70809096,24.32575357,0.26441036,0.79323109,0.0,0.5817028000000001,2.32681121,6.92755156,2.15,438,394,718,682,46,862,754,0,0,40,14,0,48,368,1376,79,74,61,46,42,66,39,22,19,36,102,37,83,59,33,77,46932,16.49920677,16.86938128
5807,5807,Agape Faith Ctr,936 NW 31st Ave,GAINESVILLE,FL,32609,29.681248999999998,-82.334723,813110,81311008,Religious Organizations,0,8.0,0,8,1380,590,603,777,44%,56%,979,234,0,57,0,32,78,258,826,70.94202899,16.95652174,0.0,4.13043478,0.0,2.31884058,5.65217391,18.69565217,2.34,281,445,522,264,39,714,630,0,0,19,33,0,32,382,948,47,30,88,8,45,26,78,0,22,25,54,45,61,32,29,0,38962,13.76811594,23.39939024
5892,5892,Parkview Baptist Church,3403 NW 13th St,GAINESVILLE,FL,32609,29.684164000000003,-82.338368,813110,81311008,Religious Organizations,0,7.0,0,7,1380,590,603,777,44%,56%,979,234,0,57,0,32,78,258,826,70.94202899,16.95652174,0.0,4.13043478,0.0,2.31884058,5.65217391,18.69565217,2.34,281,445,522,264,39,714,630,0,0,19,33,0,32,382,948,47,30,88,8,45,26,78,0,22,25,54,45,61,32,29,0,38962,13.76811594,23.39939024
5929,5929,Wesley United Methodist Church,826 NW 23rd Ave,GAINESVILLE,FL,32609,29.674594,-82.333771,813110,81311008,Religious Organizations,0,9.0,0,9,1380,590,603,777,44%,56%,979,234,0,57,0,32,78,258,826,70.94202899,16.95652174,0.0,4.13043478,0.0,2.31884058,5.65217391,18.69565217,2.34,281,445,522,264,39,714,630,0,0,19,33,0,32,382,948,47,30,88,8,45,26,78,0,22,25,54,45,61,32,29,0,38962,13.76811594,23.39939024
5941,5941,Atlas AME Church,19917 NE 13th St,GAINESVILLE,FL,32609,29.839216999999998,-82.309021,813110,81311008,Religious Organizations,0,1.0,0,1,569,272,306,263,54%,46%,343,189,0,0,0,0,37,37,343,60.28119508,33.21616872,0.0,0.0,0.0,0.0,6.5026362,6.5026362,2.09,136,100,158,350,46,232,232,0,0,0,0,0,0,173,396,0,0,7,52,45,9,53,0,27,24,0,19,36,0,0,0,36691,11.24780316,0.0
5947,5947,Jerusalem Church-God By Faith,1230 NE 156th Ave,GAINESVILLE,FL,32609,29.799198999999998,-82.308787,813110,81311008,Religious Organizations,0,2.0,0,2,569,272,306,263,54%,46%,343,189,0,0,0,0,37,37,343,60.28119508,33.21616872,0.0,0.0,0.0,0.0,6.5026362,6.5026362,2.09,136,100,158,350,46,232,232,0,0,0,0,0,0,173,396,0,0,7,52,45,9,53,0,27,24,0,19,36,0,0,0,36691,11.24780316,0.0
5949,5949,Old Jerusalem Baptist Church,909 NE 192nd Ave,GAINESVILLE,FL,32609,29.829763,-82.31424799999999,813110,81311008,Religious Organizations,0,2.0,0,2,569,272,306,263,54%,46%,343,189,0,0,0,0,37,37,343,60.28119508,33.21616872,0.0,0.0,0.0,0.0,6.5026362,6.5026362,2.09,136,100,158,350,46,232,232,0,0,0,0,0,0,173,396,0,0,7,52,45,9,53,0,27,24,0,19,36,0,0,0,36691,11.24780316,0.0
5952,5952,Antioch Baptist Church,3612 NW 177th Ave,GAINESVILLE,FL,32609,29.817659000000003,-82.36947099999999,813110,81311008,Religious Organizations,0,2.0,0,2,1024,410,483,541,47%,53%,798,104,18,32,0,0,72,28,790,77.9296875,10.15625,1.7578125,3.125,0.0,0.0,7.03125,2.734375,2.5,276,189,462,194,45,372,370,0,0,0,0,0,2,333,691,46,31,0,22,47,0,30,7,46,23,28,61,45,9,15,0,48696,6.15234375,8.59375
6034,6034,Anthem Community Church,2902 SW 75th St,GAINESVILLE,FL,32608,29.626687,-82.424301,813110,81311008,Religious Organizations,0,3.0,0,3,2022,809,986,1036,49%,51%,1786,128,42,17,0,0,49,13,1773,88.32838773,6.33036597,2.07715134,0.84075173,0.0,0.0,2.42334322,0.64292779,2.5,596,239,780,814,49,845,682,0,0,0,0,0,163,497,1379,0,66,18,0,16,42,0,49,74,68,26,44,160,25,9,212,102566,28.33827893,0.59347181
6357,6357,Anointing of the Holy Spirit,1755 SW Williston Rd,GAINESVILLE,FL,32608,29.613895,-82.34788,813110,81311008,Religious Organizations,0,2.0,0,2,2175,867,1144,1031,53%,47%,1984,145,8,26,0,0,12,254,1756,91.2183908,6.66666667,0.36781609,1.1954023,0.0,0.0,0.55172414,11.67816092,2.37,227,661,534,1506,51,842,688,0,47,62,0,0,45,573,1583,81,42,70,38,23,29,10,42,18,45,80,134,75,84,41,55,68750,15.54022989,27.78574845
6545,6545,Trinity Missionary Baptist Chr,5353 SW 17th Ter,GAINESVILLE,FL,32608,29.603676,-82.34373000000001,813110,81311008,Religious Organizations,0,3.0,0,3,2175,867,1144,1031,53%,47%,1984,145,8,26,0,0,12,254,1756,91.2183908,6.66666667,0.36781609,1.1954023,0.0,0.0,0.55172414,11.67816092,2.37,227,661,534,1506,51,842,688,0,47,62,0,0,45,573,1583,81,42,70,38,23,29,10,42,18,45,80,134,75,84,41,55,68750,15.54022989,27.78574845
6677,6677,Holy Faith Catholic Church,700 NW 39th Rd,GAINESVILLE,FL,32607,29.658147999999997,-82.388186,813110,81311008,Religious Organizations,0,5.0,0,5,1606,504,973,633,61%,39%,1191,336,0,13,16,0,50,99,1158,74.15940224,20.92154421,0.0,0.80946451,0.99626401,0.0,3.11332503,6.16438356,3.18,164,984,341,234,24,992,727,152,36,14,28,5,30,859,715,50,26,81,32,60,7,5,56,6,22,59,60,28,9,0,3,31071,9.6513076,47.75840598
6678,6678,Holy Faith Catholic Church,747 NW 43rd St,GAINESVILLE,FL,32607,29.656815,-82.388113,813110,81311008,Religious Organizations,0,15.0,0,15,1606,504,973,633,61%,39%,1191,336,0,13,16,0,50,99,1158,74.15940224,20.92154421,0.0,0.80946451,0.99626401,0.0,3.11332503,6.16438356,3.18,164,984,341,234,24,992,727,152,36,14,28,5,30,859,715,50,26,81,32,60,7,5,56,6,22,59,60,28,9,0,3,31071,9.6513076,47.75840598
6735,6735,Quaker Meeting,702 NW 38th St,GAINESVILLE,FL,32607,29.657892999999998,-82.38235,813110,81311008,Religious Organizations,0,3.0,0,3,1606,504,973,633,61%,39%,1191,336,0,13,16,0,50,99,1158,74.15940224,20.92154421,0.0,0.80946451,0.99626401,0.0,3.11332503,6.16438356,3.18,164,984,341,234,24,992,727,152,36,14,28,5,30,859,715,50,26,81,32,60,7,5,56,6,22,59,60,28,9,0,3,31071,9.6513076,47.75840598
6823,6823,FAMILY OF ST FRANCIS,700 NW 39TH RD,GAINESVILLE,FL,32607,29.658147999999997,-82.388186,813110,81311008,RELIGIOUS ORGANIZATIONS,0,2.0,0,2,1606,504,973,633,61%,39%,1191,336,0,13,16,0,50,99,1158,74.15940224,20.92154421,0.0,0.80946451,0.99626401,0.0,3.11332503,6.16438356,3.18,164,984,341,234,24,992,727,152,36,14,28,5,30,859,715,50,26,81,32,60,7,5,56,6,22,59,60,28,9,0,3,31071,9.6513076,47.75840598
6899,6899,Jerusalem Missionary Baptist,8724 NE Waldo Rd,GAINESVILLE,FL,32609,29.734968,-82.244461,813110,81311008,Religious Organizations,0,3.0,0,3,888,463,513,375,58%,42%,814,74,0,0,0,0,0,7,807,91.66666667,8.33333333,0.0,0.0,0.0,0.0,0.0,0.78828829,1.91,94,232,364,396,51,443,431,0,0,0,0,0,12,151,737,63,15,18,57,64,29,0,14,77,34,30,52,0,10,0,0,32868,4.95495495,22.63513514
7005,7005,CHURCH AT THE LINTON OAKS,6410 SW 8TH AVE,GAINESVILLE,FL,32607,29.645494,-82.411563,813110,81311008,RELIGIOUS ORGANIZATIONS,0,2.0,0,2,1655,579,787,868,48%,52%,770,686,0,51,0,23,125,164,704,46.52567976,41.45015106,0.0,3.081571,0.0,1.3897281000000001,7.55287009,9.90936556,2.86,668,603,327,114,24,584,460,0,0,19,105,0,0,603,836,140,105,113,13,12,47,39,36,17,0,37,0,20,0,0,0,17060,5.43806647,45.25679758
7013,7013,FIRST BAPTIST CHURCH,6915 NW 4TH BLVD,GAINESVILLE,FL,32607,29.654739000000003,-82.416641,813110,81311008,RELIGIOUS ORGANIZATIONS,0,3.0,0,3,1655,579,787,868,48%,52%,770,686,0,51,0,23,125,164,704,46.52567976,41.45015106,0.0,3.081571,0.0,1.3897281000000001,7.55287009,9.90936556,2.86,668,603,327,114,24,584,460,0,0,19,105,0,0,603,836,140,105,113,13,12,47,39,36,17,0,37,0,20,0,0,0,17060,5.43806647,45.25679758
7088,7088,IGLESIA CRISTIANA MISIONERA,4107 NW 34TH PL,GAINESVILLE,FL,32606,29.887702,-82.45363,813110,81311008,RELIGIOUS ORGANIZATIONS,0,2.0,0,2,1724,724,798,926,46%,54%,1550,121,0,10,0,0,43,0,1550,89.90719258,7.01856148,0.0,0.5800464,0.0,0.0,2.49419954,0.0,2.35,324,209,812,758,50,620,620,0,0,0,0,0,0,363,1361,48,0,13,15,11,68,56,25,67,25,127,116,33,91,13,16,67353,16.2412993,9.23976608
7118,7118,Overcomer Ministries Inc,9938 SW Archer Rd,GAINESVILLE,FL,32608,29.585901,-82.4484,813110,81311021,Religious Organizations,0,1.0,0,1,2344,799,977,1367,42%,58%,2193,0,0,121,0,0,30,309,1884,93.55802048,0.0,0.0,5.16211604,0.0,0.0,1.27986348,13.18259386,2.93,619,462,849,828,42,924,897,0,14,0,0,0,13,769,1566,15,11,0,12,16,37,0,28,35,71,43,101,61,121,138,110,109013,14.76109215,2.85836177
7212,7212,WORLD WIDE WORSHIP MINISTRIES,5749 SW 75TH DR # 123,GAINESVILLE,FL,32608,29.600784,-82.42302099999999,813110,81311008,RELIGIOUS ORGANIZATIONS,0,2.0,0,2,2536,1052,1095,1441,43%,57%,1758,466,0,146,0,121,45,424,1412,69.32176656,18.37539432,0.0,5.75709779,0.0,4.77129338,1.77444795,16.7192429,2.41,556,1027,718,470,33,1453,1366,0,0,0,24,19,44,711,1702,72,0,31,14,0,22,50,13,42,93,139,113,130,145,129,59,83816,18.61198738,17.9022082
7224,7224,Watts Teaching Ministries Inc,9027 SW 75th Way,GAINESVILLE,FL,32608,29.570690999999997,-82.423373,813110,81311021,Religious Organizations,0,2.0,0,2,1308,416,700,608,54%,46%,1139,45,0,0,0,84,40,199,1024,87.07951070000001,3.44036697,0.0,0.0,0.0,6.42201835,3.05810398,15.21406728,3.14,297,308,521,364,50,607,455,16,59,0,14,0,63,307,956,43,0,6,28,0,57,0,0,29,53,0,38,54,69,39,0,56548,25.0,20.23809524
7246,7246,Full Gospel Businesses,4801 SW 63rd Blvd,GAINESVILLE,FL,32608,29.609136,-82.410839,813110,81311021,Religious Organizations,0,1.0,0,1,1952,857,969,983,50%,50%,1368,416,0,94,0,23,51,122,1296,70.08196721,21.31147541,0.0,4.81557377,0.0,1.17827869,2.61270492,6.25,2.28,394,934,430,388,28,986,864,38,0,0,51,10,23,479,1362,65,44,46,144,26,111,51,100,7,94,60,38,31,0,40,0,34330,19.979508199999998,14.49795082
7254,7254,Oak Park Baptist Church,4610 SW Archer Rd,GAINESVILLE,FL,32608,29.614773,-82.392992,813110,81311008,Religious Organizations,0,5.0,0,5,1952,857,969,983,50%,50%,1368,416,0,94,0,23,51,122,1296,70.08196721,21.31147541,0.0,4.81557377,0.0,1.17827869,2.61270492,6.25,2.28,394,934,430,388,28,986,864,38,0,0,51,10,23,479,1362,65,44,46,144,26,111,51,100,7,94,60,38,31,0,40,0,34330,19.979508199999998,14.49795082
7387,7387,SOUTHWEST BAPTIST CHURCH,5745 SW 75TH ST # 127,GAINESVILLE,FL,32608,29.602031,-82.422403,813110,81311008,RELIGIOUS ORGANIZATIONS,0,3.0,0,3,3176,1396,1239,1937,39%,61%,2032,986,17,81,0,0,60,528,1504,63.97984887,31.04534005,0.53526448,2.55037783,0.0,0.0,1.88916877,16.62468514,2.21,967,1206,749,508,30,1516,1350,29,0,98,31,0,8,847,2098,171,142,106,57,68,66,170,85,162,59,111,116,21,14,12,36,38423,7.80856423,27.45033113
7400,7400,Pleasant Plain United Mthdst,4926 SW 57th Ave,GAINESVILLE,FL,32608,29.671698,-82.519982,813110,81311008,Religious Organizations,0,3.0,0,3,3640,1432,1821,1819,50%,50%,2839,568,5,122,0,31,75,147,2725,77.99450549,15.6043956,0.13736264,3.35164835,0.0,0.85164835,2.06043956,4.03846154,2.54,706,955,1507,944,44,1788,1689,8,9,0,17,0,65,881,2657,97,74,45,61,32,37,85,97,35,72,201,159,171,60,109,97,67260,13.87362637,8.8405398
7421,7421,Celebration United Methodist,9501 SW Archer Rd,GAINESVILLE,FL,32608,29.590891999999997,-82.436516,813110,81311008,Religious Organizations,0,6.0,0,6,5494,2076,2691,2803,49%,51%,4354,398,0,557,7,113,65,526,3920,79.25009101,7.24426647,0.0,10.13833273,0.12741172,2.05678922,1.18310885,9.57408082,2.65,1413,1785,1664,1264,36,2720,2400,0,0,0,0,69,251,1479,3692,141,0,113,89,61,78,50,30,33,199,134,274,364,148,201,161,84091,15.98107026,6.89843466
7423,7423,Circle Prayer,10607 SW 71st St,GAINESVILLE,FL,32608,29.593017,-82.422747,813110,81311008,Religious Organizations,0,2.0,0,2,5494,2076,2691,2803,49%,51%,4354,398,0,557,7,113,65,526,3920,79.25009101,7.24426647,0.0,10.13833273,0.12741172,2.05678922,1.18310885,9.57408082,2.65,1413,1785,1664,1264,36,2720,2400,0,0,0,0,69,251,1479,3692,141,0,113,89,61,78,50,30,33,199,134,274,364,148,201,161,84091,15.98107026,6.89843466
7436,7436,Kanapaha Presbyterian Church,6221 SW 75th Ter,GAINESVILLE,FL,32608,29.590351000000002,-82.430438,813110,81311008,Religious Organizations,0,2.0,0,2,5494,2076,2691,2803,49%,51%,4354,398,0,557,7,113,65,526,3920,79.25009101,7.24426647,0.0,10.13833273,0.12741172,2.05678922,1.18310885,9.57408082,2.65,1413,1785,1664,1264,36,2720,2400,0,0,0,0,69,251,1479,3692,141,0,113,89,61,78,50,30,33,199,134,274,364,148,201,161,84091,15.98107026,6.89843466
7505,7505,ANTIOCH BAPTIST CHR PASTORIUM,3601 NW 177TH AVE,GAINESVILLE,FL,32609,29.816915,-82.38060899999999,813110,81311008,RELIGIOUS ORGANIZATIONS,0,3.0,0,3,886,381,488,398,55%,45%,784,30,0,8,0,2,62,2,784,88.48758465,3.38600451,0.0,0.90293454,0.0,0.22573363,6.99774266,0.22573363,2.31,154,308,267,314,36,408,385,0,21,0,0,0,2,207,656,80,9,42,37,24,18,9,17,25,14,33,9,47,17,0,0,27344,7.44920993,11.51241535
7507,7507,Mt Nebo United Methodist Chr,12622 NW 36th Ave,GAINESVILLE,FL,32606,29.746526,-82.493188,813110,81311008,Religious Organizations,0,1.0,0,1,1696,643,832,864,49%,51%,1431,197,6,12,0,4,46,132,1313,84.375,11.61556604,0.35377358,0.70754717,0.0,0.23584906,2.71226415,7.78301887,2.64,363,417,728,376,43,876,812,0,6,0,23,13,22,471,1172,25,9,35,3,25,19,22,22,0,48,67,108,87,71,37,65,81490,14.09198113,8.92962744
7581,7581,Family Church,2022 SW 122nd St,GAINESVILLE,FL,32607,29.633951,-82.479101,813110,81311008,Religious Organizations,0,20.0,0,20,3200,1152,1721,1479,54%,46%,2963,120,8,62,0,0,47,104,2906,92.59375,3.75,0.25,1.9375,0.0,0.0,1.46875,3.25,2.78,700,690,1384,852,44,1683,1621,0,0,0,0,0,62,800,2311,20,16,0,15,52,27,62,39,16,82,139,83,190,198,99,114,102712,20.65625,1.03125
7586,7586,Parker Road Baptist Church,3200 SW 122nd St,GAINESVILLE,FL,32608,29.62507,-82.473699,813110,81311008,Religious Organizations,0,4.0,0,4,3200,1152,1721,1479,54%,46%,2963,120,8,62,0,0,47,104,2906,92.59375,3.75,0.25,1.9375,0.0,0.0,1.46875,3.25,2.78,700,690,1384,852,44,1683,1621,0,0,0,0,0,62,800,2311,20,16,0,15,52,27,62,39,16,82,139,83,190,198,99,114,102712,20.65625,1.03125
7770,7770,Powerhouse Family Worship Ctr,7600 SW 24th Ave,GAINESVILLE,FL,32607,29.631038,-82.42357,813110,81311008,Religious Organizations,0,3.0,0,3,2618,867,1254,1364,48%,52%,2020,175,0,262,0,33,128,331,1722,77.15813598,6.68449198,0.0,10.00763942,0.0,1.2605042,4.88922842,12.64323911,3.02,704,512,1133,538,42,1361,1219,20,0,18,12,24,68,807,1709,9,18,0,0,25,20,23,0,6,78,111,53,126,99,136,163,120125,19.13674561,1.14810563
7816,7816,Christ Community Church,1603 SW 122nd St,GAINESVILLE,FL,32607,29.637611,-82.471564,813110,81311008,Religious Organizations,0,20.0,0,20,1491,507,645,846,43%,57%,1419,0,7,32,23,0,10,70,1349,95.17102616,0.0,0.46948357,2.1462106,1.54258887,0.0,0.67069081,4.69483568,2.94,371,306,628,372,44,753,696,0,0,5,5,0,47,389,1074,22,6,0,0,6,6,11,21,5,26,35,53,45,27,94,150,134375,19.45003353,5.23138833
7830,7830,LSD Family History Ctr,10600 SW 24th Ave,GAINESVILLE,FL,32607,29.631175,-82.455127,813110,81311008,Religious Organizations,0,2.0,0,2,1491,507,645,846,43%,57%,1419,0,7,32,23,0,10,70,1349,95.17102616,0.0,0.46948357,2.1462106,1.54258887,0.0,0.67069081,4.69483568,2.94,371,306,628,372,44,753,696,0,0,5,5,0,47,389,1074,22,6,0,0,6,6,11,21,5,26,35,53,45,27,94,150,134375,19.45003353,5.23138833
7832,7832,Rock of Gainesville,9818 SW 24th Ave # A,GAINESVILLE,FL,32607,29.631254,-82.447163,813110,81311008,Religious Organizations,0,21.0,0,21,1491,507,645,846,43%,57%,1419,0,7,32,23,0,10,70,1349,95.17102616,0.0,0.46948357,2.1462106,1.54258887,0.0,0.67069081,4.69483568,2.94,371,306,628,372,44,753,696,0,0,5,5,0,47,389,1074,22,6,0,0,6,6,11,21,5,26,35,53,45,27,94,150,134375,19.45003353,5.23138833
7835,7835,St Mary Magdalene Church,2014 SW 120th Ter,GAINESVILLE,FL,32607,29.634114,-82.47099,813110,81311008,Religious Organizations,0,5.0,0,5,1491,507,645,846,43%,57%,1419,0,7,32,23,0,10,70,1349,95.17102616,0.0,0.46948357,2.1462106,1.54258887,0.0,0.67069081,4.69483568,2.94,371,306,628,372,44,753,696,0,0,5,5,0,47,389,1074,22,6,0,0,6,6,11,21,5,26,35,53,45,27,94,150,134375,19.45003353,5.23138833
7844,7844,CIRCLE OF LIGHT FELLOWSHIP INC,1132 SW 105TH TER,GAINESVILLE,FL,32607,29.641765999999997,-82.454083,813110,81311008,RELIGIOUS ORGANIZATIONS,0,2.0,0,2,1491,507,645,846,43%,57%,1419,0,7,32,23,0,10,70,1349,95.17102616,0.0,0.46948357,2.1462106,1.54258887,0.0,0.67069081,4.69483568,2.94,371,306,628,372,44,753,696,0,0,5,5,0,47,389,1074,22,6,0,0,6,6,11,21,5,26,35,53,45,27,94,150,134375,19.45003353,5.23138833
7874,7874,Church Of Jesus Christ Of LDS,5745 SW 75th St Pmb 297,GAINESVILLE,FL,32608,29.631175,-82.455127,813110,81311008,Religious Organizations,0,2.0,0,2,1491,507,645,846,43%,57%,1419,0,7,32,23,0,10,70,1349,95.17102616,0.0,0.46948357,2.1462106,1.54258887,0.0,0.67069081,4.69483568,2.94,371,306,628,372,44,753,696,0,0,5,5,0,47,389,1074,22,6,0,0,6,6,11,21,5,26,35,53,45,27,94,150,134375,19.45003353,5.23138833
7992,7992,River Cross Church,5201 SW 91st Dr,GAINESVILLE,FL,32608,29.606788,-82.437751,813110,81311008,Religious Organizations,0,2.0,0,2,2957,1519,1306,1651,44%,56%,2603,46,0,205,0,27,76,278,2378,88.02840717,1.55563071,0.0,6.93270206,0.0,0.91308759,2.57017247,9.40142036,1.95,467,686,1065,1478,49,1300,1185,0,0,23,0,0,92,539,2320,44,39,0,35,30,38,31,150,111,131,134,201,190,74,151,160,75737,18.02502536,4.97125465
8416,8416,DR ANN BAUERNF CHURCH MD,1601 SW ARCHER RD,GAINESVILLE,FL,32608,29.639088,-82.343264,813110,81311008,RELIGIOUS ORGANIZATIONS,0,3.0,0,3,1313,20,454,859,35%,65%,1025,96,4,104,0,31,53,218,845,78.06549886,7.31150038,0.30464585,7.92079208,0.0,2.36100533,4.0365575,16.60319878,1.35,30,1244,31,16,19,210,53,0,39,14,87,0,17,1270,43,4,4,0,0,0,9,0,0,0,0,3,0,0,0,0,0,33056,0.53313024,29.62962963
8513,8513,Emmanuel Mennonite Church,1236 NW 18th Ave,GAINESVILLE,FL,32609,29.668570000000003,-82.33843399999999,813110,81311008,Religious Organizations,0,1.0,0,1,1555,836,829,726,53%,47%,882,599,19,24,0,0,31,26,882,56.72025723,38.52090032,1.22186495,1.54340836,0.0,0.0,1.99356913,1.67202572,1.86,262,711,482,200,28,822,678,15,87,12,18,0,12,488,1052,171,104,89,40,86,57,17,15,35,128,15,34,31,14,0,0,25700,13.63344051,34.01929260000001
8653,8653,Child Evangelism Fellowship,2615 NW 6th St # C1,GAINESVILLE,FL,32609,29.677014,-82.330513,813110,81311021,Religious Organizations,0,3.0,0,3,335,144,119,216,36%,64%,236,99,0,0,0,0,0,6,230,70.44776119,29.55223881,0.0,0.0,0.0,0.0,0.0,1.79104478,2.33,88,117,90,80,28,163,137,0,20,6,0,0,0,47,266,30,0,16,26,9,0,26,0,0,8,15,8,6,0,0,0,25000,4.17910448,48.95522388
8777,8777,Jesus People Life Changing Chr,800 NW 39th Ave,GAINESVILLE,FL,32609,29.689211,-82.332421,813110,81311008,Religious Organizations,0,6.0,0,6,760,397,363,397,48%,52%,540,159,8,0,0,47,6,0,540,71.05263158,20.92105263,1.05263158,0.0,0.0,6.18421053,0.78947368,0.0,1.84,58,246,317,278,47,318,297,0,0,9,0,0,12,107,653,80,49,34,46,68,0,14,9,30,0,0,19,0,0,41,7,24429,10.26315789,32.36842105
8879,8879,Grace Presbyterian Church,3146 NW 13th St,GAINESVILLE,FL,32609,29.681857,-82.339801,813110,81311008,Religious Organizations,0,6.0,0,6,1846,838,909,937,49%,51%,1599,103,10,98,0,19,17,159,1452,86.61971831,5.57963164,0.54171181,5.30877573,0.0,1.02925244,0.92091008,8.61321777,2.17,346,631,671,396,38,990,825,0,18,40,46,26,35,454,1306,74,66,59,48,12,36,58,19,84,85,84,74,73,22,33,11,48532,11.21343445,28.38569881
8955,8955,UNUSUAL CHURCH INC,8121 W NEWBERRY RD,GAINESVILLE,FL,32606,29.659159999999996,-82.429609,813110,81311008,RELIGIOUS ORGANIZATIONS,0,2.0,0,2,1057,483,523,534,49%,51%,954,50,0,22,0,0,31,75,910,90.25543992,4.73036897,0.0,2.08136235,0.0,0.0,2.93282876,7.09555345,2.18,188,154,452,526,55,489,445,0,0,0,0,0,44,217,792,63,0,0,41,52,0,6,0,0,10,34,129,53,53,19,23,76740,21.94891202,6.14947966
9087,9087,Spirit of Faith Christian Ctr,7510 NW 4th Blvd,GAINESVILLE,FL,32607,29.656399,-82.423278,813110,81311008,Religious Organizations,0,8.0,0,8,1057,483,523,534,49%,51%,954,50,0,22,0,0,31,75,910,90.25543992,4.73036897,0.0,2.08136235,0.0,0.0,2.93282876,7.09555345,2.18,188,154,452,526,55,489,445,0,0,0,0,0,44,217,792,63,0,0,41,52,0,6,0,0,10,34,129,53,53,19,23,76740,21.94891202,6.14947966
9113,9113,Victory Church of Gainesville,100 SW 75th St # 305,GAINESVILLE,FL,32607,29.651866,-82.424193,813110,81311008,Religious Organizations,0,6.0,0,6,1057,483,523,534,49%,51%,954,50,0,22,0,0,31,75,910,90.25543992,4.73036897,0.0,2.08136235,0.0,0.0,2.93282876,7.09555345,2.18,188,154,452,526,55,489,445,0,0,0,0,0,44,217,792,63,0,0,41,52,0,6,0,0,10,34,129,53,53,19,23,76740,21.94891202,6.14947966
9118,9118,A R CAMPS MINISTRIES INC,600 NW 80TH BLVD,GAINESVILLE,FL,32607,29.657870000000003,-82.42815999999999,813110,81311021,RELIGIOUS ORGANIZATIONS,0,2.0,0,2,1057,483,523,534,49%,51%,954,50,0,22,0,0,31,75,910,90.25543992,4.73036897,0.0,2.08136235,0.0,0.0,2.93282876,7.09555345,2.18,188,154,452,526,55,489,445,0,0,0,0,0,44,217,792,63,0,0,41,52,0,6,0,0,10,34,129,53,53,19,23,76740,21.94891202,6.14947966
9148,9148,JAY & WENDY IGLESIA,132 SW 77TH TER,GAINESVILLE,FL,32607,29.650661,-82.42463599999999,813110,81311008,RELIGIOUS ORGANIZATIONS,0,2.0,0,2,1057,483,523,534,49%,51%,954,50,0,22,0,0,31,75,910,90.25543992,4.73036897,0.0,2.08136235,0.0,0.0,2.93282876,7.09555345,2.18,188,154,452,526,55,489,445,0,0,0,0,0,44,217,792,63,0,0,41,52,0,6,0,0,10,34,129,53,53,19,23,76740,21.94891202,6.14947966
9172,9172,WTMN THE LIGHT GOSPEL 1430,100 NW 76TH DR,GAINESVILLE,FL,32607,29.652908,-82.424825,813110,81311008,RELIGIOUS ORGANIZATIONS,0,2.0,0,2,1057,483,523,534,49%,51%,954,50,0,22,0,0,31,75,910,90.25543992,4.73036897,0.0,2.08136235,0.0,0.0,2.93282876,7.09555345,2.18,188,154,452,526,55,489,445,0,0,0,0,0,44,217,792,63,0,0,41,52,0,6,0,0,10,34,129,53,53,19,23,76740,21.94891202,6.14947966
9356,9356,EAST NEWPORT BAPTIST CHURCH,4010 SW 24TH AVE,GAINESVILLE,FL,32607,29.630623999999997,-82.383888,813110,81311008,RELIGIOUS ORGANIZATIONS,0,3.0,0,3,1993,1117,896,1097,45%,55%,1091,758,0,123,0,0,21,318,802,54.74159558,38.03311591,0.0,6.1716006,0.0,0.0,1.05368791,15.95584546,1.78,301,1498,180,28,25,1129,906,0,32,145,0,46,0,633,1303,289,72,61,106,274,62,50,11,40,57,13,50,32,0,0,0,25436,12.19267436,32.71450075
9597,9597,Christian Adventures Fllwshp,314 NW 57th St,GAINESVILLE,FL,32607,29.656889000000003,-82.403724,813110,81311008,Religious Organizations,0,1.0,0,1,2453,1145,937,1516,38%,62%,1995,212,0,184,0,6,56,472,1529,81.32898492,8.642478599999999,0.0,7.50101916,0.0,0.24459845,2.28291887,19.2417448,2.04,50,1714,411,556,25,1372,1245,0,0,47,49,0,31,1359,1071,338,24,84,0,62,12,74,30,198,84,103,76,15,13,23,9,37152,18.14105177,40.06849315
9609,9609,First Morning Star Baptist Chr,115 NW 55th St,GAINESVILLE,FL,32607,29.6545,-82.40123,813110,81311008,Religious Organizations,0,2.0,0,2,2453,1145,937,1516,38%,62%,1995,212,0,184,0,6,56,472,1529,81.32898492,8.642478599999999,0.0,7.50101916,0.0,0.24459845,2.28291887,19.2417448,2.04,50,1714,411,556,25,1372,1245,0,0,47,49,0,31,1359,1071,338,24,84,0,62,12,74,30,198,84,103,76,15,13,23,9,37152,18.14105177,40.06849315
9983,9983,KATHLEEN DAMES MINISTRIES INC,2016 SW 73RD ST,GAINESVILLE,FL,32607,29.634146,-82.420399,813110,81311021,RELIGIOUS ORGANIZATIONS,0,2.0,0,2,1221,403,631,590,52%,48%,451,714,0,11,0,0,45,49,402,36.93693694,58.47665848,0.0,0.9009009,0.0,0.0,3.68550369,4.01310401,3.03,397,443,348,66,30,636,520,0,0,87,0,0,29,317,824,72,26,21,37,0,8,36,31,4,12,67,73,0,0,8,8,40188,11.46601147,29.73640857
10021,10021,GAINESVILLE COMMUNITY HOLINESS,1709 NE 15TH TER,GAINESVILLE,FL,32609,29.667959999999997,-82.304775,813110,81311008,RELIGIOUS ORGANIZATIONS,0,2.0,0,2,965,415,398,567,41%,59%,349,616,0,0,0,0,0,137,212,36.16580311,63.83419689,0.0,0.0,0.0,0.0,0.0,14.19689119,2.33,58,296,555,112,45,658,581,0,0,54,0,0,23,182,783,38,40,0,10,96,12,0,0,36,25,68,0,90,0,0,0,45799,23.73056995,11.70984456
10037,10037,MINISTERIAL EVANGELISTIC,3619 NE 11TH TER,GAINESVILLE,FL,32609,29.686199,-82.31087,813110,81311008,RELIGIOUS ORGANIZATIONS,0,2.0,0,2,3012,677,1370,1642,45%,55%,395,2202,0,11,0,0,404,39,395,13.11420983,73.10756972,0.0,0.36520584,0.0,0.0,13.41301461,1.29482072,4.44,1255,801,824,264,24,896,782,0,70,0,31,0,13,869,1859,16,39,41,77,12,45,106,7,0,180,56,63,0,23,0,12,43393,2.68924303,16.33466135
10038,10038,NEIGHBORHOOD CHURCH,2500 NE 15TH ST,GAINESVILLE,FL,32609,29.675939,-82.30588,813110,81311008,RELIGIOUS ORGANIZATIONS,0,2.0,0,2,3012,677,1370,1642,45%,55%,395,2202,0,11,0,0,404,39,395,13.11420983,73.10756972,0.0,0.36520584,0.0,0.0,13.41301461,1.29482072,4.44,1255,801,824,264,24,896,782,0,70,0,31,0,13,869,1859,16,39,41,77,12,45,106,7,0,180,56,63,0,23,0,12,43393,2.68924303,16.33466135
10044,10044,Highland Missionary Baptist,PO Box 140272,GAINESVILLE,FL,32614,29.676543,-82.305881,813110,81311008,Religious Organizations,0,2.0,0,2,3012,677,1370,1642,45%,55%,395,2202,0,11,0,0,404,39,395,13.11420983,73.10756972,0.0,0.36520584,0.0,0.0,13.41301461,1.29482072,4.44,1255,801,824,264,24,896,782,0,70,0,31,0,13,869,1859,16,39,41,77,12,45,106,7,0,180,56,63,0,23,0,12,43393,2.68924303,16.33466135
10098,10098,Bartley Temple United Mthdst,PO Box 5755,GAINESVILLE,FL,32627,29.659260999999997,-82.29973299999999,813110,81311008,Religious Organizations,0,3.0,0,3,1215,386,462,753,38%,62%,86,1085,0,22,0,0,22,41,67,7.0781893,89.30041152,0.0,1.81069959,0.0,0.0,1.81069959,3.3744856,3.15,294,327,362,464,36,347,267,0,0,50,6,0,24,325,824,94,25,0,82,13,0,18,17,13,25,28,49,8,14,0,0,24429,3.78600823,29.46502058
10100,10100,Abundance of Faith Ministries,1104 NE 22nd St,GAINESVILLE,FL,32641,29.662084999999998,-82.296256,813110,81311021,Religious Organizations,0,1.0,0,1,1215,386,462,753,38%,62%,86,1085,0,22,0,0,22,41,67,7.0781893,89.30041152,0.0,1.81069959,0.0,0.0,1.81069959,3.3744856,3.15,294,327,362,464,36,347,267,0,0,50,6,0,24,325,824,94,25,0,82,13,0,18,17,13,25,28,49,8,14,0,0,24429,3.78600823,29.46502058
10101,10101,Antioch Holiness Church,2516 NE 8th Ave,GAINESVILLE,FL,32641,29.659291999999997,-82.291236,813110,81311008,Religious Organizations,0,2.0,0,2,1215,386,462,753,38%,62%,86,1085,0,22,0,0,22,41,67,7.0781893,89.30041152,0.0,1.81069959,0.0,0.0,1.81069959,3.3744856,3.15,294,327,362,464,36,347,267,0,0,50,6,0,24,325,824,94,25,0,82,13,0,18,17,13,25,28,49,8,14,0,0,24429,3.78600823,29.46502058
10105,10105,Church of God in Unity,1714 NE 8th Ave,GAINESVILLE,FL,32641,29.659442,-82.302752,813110,81311008,Religious Organizations,0,2.0,0,2,1215,386,462,753,38%,62%,86,1085,0,22,0,0,22,41,67,7.0781893,89.30041152,0.0,1.81069959,0.0,0.0,1.81069959,3.3744856,3.15,294,327,362,464,36,347,267,0,0,50,6,0,24,325,824,94,25,0,82,13,0,18,17,13,25,28,49,8,14,0,0,24429,3.78600823,29.46502058
10107,10107,Gainesville Community Holiness,1736 NE 8th Ave,GAINESVILLE,FL,32641,29.659364,-82.302139,813110,81311008,Religious Organizations,0,2.0,0,2,1215,386,462,753,38%,62%,86,1085,0,22,0,0,22,41,67,7.0781893,89.30041152,0.0,1.81069959,0.0,0.0,1.81069959,3.3744856,3.15,294,327,362,464,36,347,267,0,0,50,6,0,24,325,824,94,25,0,82,13,0,18,17,13,25,28,49,8,14,0,0,24429,3.78600823,29.46502058
10115,10115,Mt Zion Church of God in Unity,1916 NE 8th Ave,GAINESVILLE,FL,32641,29.659411,-82.300241,813110,81311008,Religious Organizations,0,4.0,0,4,1215,386,462,753,38%,62%,86,1085,0,22,0,0,22,41,67,7.0781893,89.30041152,0.0,1.81069959,0.0,0.0,1.81069959,3.3744856,3.15,294,327,362,464,36,347,267,0,0,50,6,0,24,325,824,94,25,0,82,13,0,18,17,13,25,28,49,8,14,0,0,24429,3.78600823,29.46502058
10130,10130,Johnson Chapel Baptist Church,PO Box 140173,GAINESVILLE,FL,32614,29.654769,-82.30748,813110,81311008,Religious Organizations,0,5.0,0,5,858,297,323,535,38%,62%,8,826,0,0,0,0,24,14,8,0.93240093,96.27039627,0.0,0.0,0.0,0.0,2.7972028,1.63170163,2.89,320,257,243,76,25,221,149,0,0,0,56,0,16,371,458,49,60,37,20,15,16,31,27,14,7,21,0,0,0,0,0,22813,3.61305361,46.96969697
10141,10141,Mt Olive Primitive Baptist Chr,510 NE 15th St,GAINESVILLE,FL,32641,29.656202,-82.306191,813110,81311008,Religious Organizations,0,3.0,0,3,858,297,323,535,38%,62%,8,826,0,0,0,0,24,14,8,0.93240093,96.27039627,0.0,0.0,0.0,0.0,2.7972028,1.63170163,2.89,320,257,243,76,25,221,149,0,0,0,56,0,16,371,458,49,60,37,20,15,16,31,27,14,7,21,0,0,0,0,0,22813,3.61305361,46.96969697
10152,10152,NEW HORIZON OUTREACH MINISTRY,127 NE 15TH ST,GAINESVILLE,FL,32641,29.653056,-82.305802,813110,81311008,RELIGIOUS ORGANIZATIONS,0,2.0,0,2,858,297,323,535,38%,62%,8,826,0,0,0,0,24,14,8,0.93240093,96.27039627,0.0,0.0,0.0,0.0,2.7972028,1.63170163,2.89,320,257,243,76,25,221,149,0,0,0,56,0,16,371,458,49,60,37,20,15,16,31,27,14,7,21,0,0,0,0,0,22813,3.61305361,46.96969697
10171,10171,Redemption Orthodox Prsbytrn,6418 NW 33rd Ter,GAINESVILLE,FL,32653,29.713683000000003,-82.37199100000001,813110,81311008,Religious Organizations,0,2.0,0,2,2547,960,1382,1165,54%,46%,2141,160,0,186,0,0,60,174,1983,84.05967805,6.28190027,0.0,7.30270907,0.0,0.0,2.3557126,6.83156655,2.65,710,551,1007,558,42,1209,1093,27,0,0,11,0,78,785,1650,0,29,53,17,27,70,65,56,11,104,37,161,112,78,72,68,76310,18.25677267,3.72987829
10176,10176,Trinity United Methodist Chr,4000 NW 53rd Ave,GAINESVILLE,FL,32653,29.706038,-82.383259,813110,81311008,Religious Organizations,0,50.0,0,50,2547,960,1382,1165,54%,46%,2141,160,0,186,0,0,60,174,1983,84.05967805,6.28190027,0.0,7.30270907,0.0,0.0,2.3557126,6.83156655,2.65,710,551,1007,558,42,1209,1093,27,0,0,11,0,78,785,1650,0,29,53,17,27,70,65,56,11,104,37,161,112,78,72,68,76310,18.25677267,3.72987829
10284,10284,St Elizabeth Greek Orthodox,5129 NW 53rd Ave,GAINESVILLE,FL,32653,29.70322,-82.398427,813110,81311008,Religious Organizations,0,1.0,0,1,868,429,406,462,47%,53%,679,0,0,189,0,0,0,183,496,78.22580645,0.0,0.0,21.77419355,0.0,0.0,0.0,21.08294931,2.01,254,310,229,150,34,423,346,0,0,0,0,0,77,262,525,0,0,26,30,0,16,49,26,9,89,108,0,39,9,0,28,53267,14.28571429,3.68663594
10514,10514,Simmons Grove Bethelite Bapt,PO Box 6016,GAINESVILLE,FL,32627,29.715698,-82.144763,813110,81311008,Religious Organizations,0,3.0,0,3,737,271,364,373,49%,51%,508,158,0,20,0,0,51,33,506,68.92808684,21.43826323,0.0,2.71370421,0.0,0.0,6.91994573,4.47761194,2.72,114,190,244,378,48,251,224,0,0,0,0,5,22,87,635,22,8,7,31,11,8,0,34,17,24,50,48,4,0,7,0,47132,7.46268657,19.13161465
10560,10560,Church of the Kingdom of God,402 SE 14th St,GAINESVILLE,FL,32641,29.648096000000002,-82.307423,813110,81311008,Religious Organizations,0,2.0,0,2,555,200,392,163,71%,29%,30,525,0,0,0,0,0,0,30,5.40540541,94.59459459,0.0,0.0,0.0,0.0,0.0,0.0,2.78,161,228,98,136,37,180,165,0,0,15,0,0,0,223,332,28,30,0,0,13,82,0,0,0,0,0,47,0,0,0,0,33384,2.88288288,12.61261261
10566,10566,New & Living Way Outreach,1145 E University Ave,GAINESVILLE,FL,32641,29.651840999999997,-82.310174,813110,81311027,Religious Organizations,0,1.0,0,1,555,200,392,163,71%,29%,30,525,0,0,0,0,0,0,30,5.40540541,94.59459459,0.0,0.0,0.0,0.0,0.0,0.0,2.78,161,228,98,136,37,180,165,0,0,15,0,0,0,223,332,28,30,0,0,13,82,0,0,0,0,0,47,0,0,0,0,33384,2.88288288,12.61261261
10584,10584,Mt Moriah Baptist Church,718 SE 11th St,GAINESVILLE,FL,32641,29.645324,-82.312503,813110,81311008,Religious Organizations,0,3.0,0,3,1422,357,653,769,46%,54%,187,1235,0,0,0,0,0,0,187,13.15049226,86.84950774,0.0,0.0,0.0,0.0,0.0,0.0,3.98,416,249,543,428,42,392,283,0,0,70,0,0,39,354,1030,13,10,34,12,25,73,16,44,0,39,12,28,25,0,0,26,39297,3.44585091,20.81575246
10586,10586,Redeeming Faith & Anointing,918 SE Williston Rd,GAINESVILLE,FL,32641,29.643114,-82.31165,813110,81311008,Religious Organizations,0,3.0,0,3,1422,357,653,769,46%,54%,187,1235,0,0,0,0,0,0,187,13.15049226,86.84950774,0.0,0.0,0.0,0.0,0.0,0.0,3.98,416,249,543,428,42,392,283,0,0,70,0,0,39,354,1030,13,10,34,12,25,73,16,44,0,39,12,28,25,0,0,26,39297,3.44585091,20.81575246
10588,10588,Springhill Missionary Bapt Chr,120 SE Williston Rd,GAINESVILLE,FL,32641,29.633146999999997,-82.32066999999999,813110,81311008,Religious Organizations,0,2.0,0,2,1422,357,653,769,46%,54%,187,1235,0,0,0,0,0,0,187,13.15049226,86.84950774,0.0,0.0,0.0,0.0,0.0,0.0,3.98,416,249,543,428,42,392,283,0,0,70,0,0,39,354,1030,13,10,34,12,25,73,16,44,0,39,12,28,25,0,0,26,39297,3.44585091,20.81575246
10591,10591,Victory Temple Church of God,908 SE Williston Rd,GAINESVILLE,FL,32641,29.638109000000004,-82.314826,813110,81311008,Religious Organizations,0,2.0,0,2,1422,357,653,769,46%,54%,187,1235,0,0,0,0,0,0,187,13.15049226,86.84950774,0.0,0.0,0.0,0.0,0.0,0.0,3.98,416,249,543,428,42,392,283,0,0,70,0,0,39,354,1030,13,10,34,12,25,73,16,44,0,39,12,28,25,0,0,26,39297,3.44585091,20.81575246
10707,10707,Calvary Chapel,PO Box 140779,GAINESVILLE,FL,32614,29.598823,-82.402338,813110,81311008,Religious Organizations,0,2.0,0,2,1891,875,861,1030,46%,54%,1356,460,5,15,0,11,44,131,1251,71.70809096,24.32575357,0.26441036,0.79323109,0.0,0.5817028000000001,2.32681121,6.92755156,2.15,438,394,718,682,46,862,754,0,0,40,14,0,48,368,1376,79,74,61,46,42,66,39,22,19,36,102,37,83,59,33,77,46932,16.49920677,16.86938128
10715,10715,Chat Love Ministries Inc,PO Box 5905,GAINESVILLE,FL,32627,29.664934999999996,-82.324494,813110,81311008,Religious Organizations,0,2.0,0,2,1846,859,688,1158,37%,63%,1235,447,0,46,0,17,101,120,1146,66.90140845,24.21451788,0.0,2.49187432,0.0,0.92091008,5.47128927,6.50054171,2.11,296,970,408,344,28,809,446,0,252,17,76,0,18,821,991,258,106,135,65,10,45,40,54,46,10,42,26,0,0,22,0,18515,6.17551463,49.89094875
10745,10745,SHADY GROVE PRIMITIVE BAPTIST,PO BOX 5073,GAINESVILLE,FL,32627,29.664934999999996,-82.324494,813110,81311008,RELIGIOUS ORGANIZATIONS,0,3.0,0,3,1846,859,688,1158,37%,63%,1235,447,0,46,0,17,101,120,1146,66.90140845,24.21451788,0.0,2.49187432,0.0,0.92091008,5.47128927,6.50054171,2.11,296,970,408,344,28,809,446,0,252,17,76,0,18,821,991,258,106,135,65,10,45,40,54,46,10,42,26,0,0,22,0,18515,6.17551463,49.89094875
10751,10751,Church of A New Beginning,1504 SE 28th Pl,GAINESVILLE,FL,32641,29.660925,-82.325523,813110,81311008,Religious Organizations,0,2.0,0,2,1846,859,688,1158,37%,63%,1235,447,0,46,0,17,101,120,1146,66.90140845,24.21451788,0.0,2.49187432,0.0,0.92091008,5.47128927,6.50054171,2.11,296,970,408,344,28,809,446,0,252,17,76,0,18,821,991,258,106,135,65,10,45,40,54,46,10,42,26,0,0,22,0,18515,6.17551463,49.89094875
10768,10768,TRINITY CHURCH-THE NEAZARENE,3147 NW 10TH ST,GAINESVILLE,FL,32609,29.681765999999996,-82.33475899999999,813110,81311008,RELIGIOUS ORGANIZATIONS,0,2.0,0,2,1380,590,603,777,44%,56%,979,234,0,57,0,32,78,258,826,70.94202899,16.95652174,0.0,4.13043478,0.0,2.31884058,5.65217391,18.69565217,2.34,281,445,522,264,39,714,630,0,0,19,33,0,32,382,948,47,30,88,8,45,26,78,0,22,25,54,45,61,32,29,0,38962,13.76811594,23.39939024
10794,10794,CAROL ESTATES BAPTIST CHURCH,11411 N STATE ROAD 121,GAINESVILLE,FL,32653,29.759252000000004,-82.357351,813110,81311008,RELIGIOUS ORGANIZATIONS,0,3.0,0,3,1024,410,483,541,47%,53%,798,104,18,32,0,0,72,28,790,77.9296875,10.15625,1.7578125,3.125,0.0,0.0,7.03125,2.734375,2.5,276,189,462,194,45,372,370,0,0,0,0,0,2,333,691,46,31,0,22,47,0,30,7,46,23,28,61,45,9,15,0,48696,6.15234375,8.59375
10865,10865,Gateway Christian Ctr Inc,5135 NW 21st St,GAINESVILLE,FL,32653,29.702903000000003,-82.351104,813110,81311008,Religious Organizations,0,3.0,0,3,1805,615,1097,708,61%,39%,1429,34,89,34,0,120,99,395,1132,79.16897507,1.88365651,4.93074792,1.88365651,0.0,6.64819945,5.48476454,21.88365651,2.93,333,699,640,266,33,1105,960,0,0,34,0,11,100,295,1438,11,0,0,0,20,35,17,0,13,69,147,151,21,103,23,5,71696,17.00831025,3.76731302
10879,10879,St Paul AME Church,95 NE 132nd Ter,GAINESVILLE,FL,32641,29.65128,-82.179345,813110,81311008,Religious Organizations,0,3.0,0,3,656,341,276,380,42%,58%,500,63,21,0,0,6,66,0,500,76.2195122,9.60365854,3.20121951,0.0,0.0,0.91463415,10.06097561,0.0,1.92,57,124,227,496,58,237,190,0,0,0,0,0,47,115,530,42,36,16,19,25,50,5,6,41,35,14,34,18,0,0,0,32813,0.6097561,21.79878049
10881,10881,Windsor Baptist Church,918 SE County Road 234,GAINESVILLE,FL,32641,29.642395,-82.188356,813110,81311008,Religious Organizations,0,4.0,0,4,656,341,276,380,42%,58%,500,63,21,0,0,6,66,0,500,76.2195122,9.60365854,3.20121951,0.0,0.0,0.91463415,10.06097561,0.0,1.92,57,124,227,496,58,237,190,0,0,0,0,0,47,115,530,42,36,16,19,25,50,5,6,41,35,14,34,18,0,0,0,32813,0.6097561,21.79878049
10907,10907,Trinity Metropolitan Community,PO Box 140535,GAINESVILLE,FL,32614,29.57361,-82.466966,813110,81311008,Religious Organizations,0,1.0,0,1,2344,799,977,1367,42%,58%,2193,0,0,121,0,0,30,309,1884,93.55802048,0.0,0.0,5.16211604,0.0,0.0,1.27986348,13.18259386,2.93,619,462,849,828,42,924,897,0,14,0,0,0,13,769,1566,15,11,0,12,16,37,0,28,35,71,43,101,61,121,138,110,109013,14.76109215,2.85836177
11052,11052,Church of God By Faith,735 SE 15th St,GAINESVILLE,FL,32641,29.645284000000004,-82.305114,813110,81311008,Religious Organizations,0,1.0,0,1,2268,894,1123,1145,50%,50%,453,1772,0,0,0,0,43,16,453,19.97354497,78.13051146,0.0,0.0,0.0,0.0,1.89594356,0.70546737,2.52,449,730,674,830,39,701,614,0,0,49,0,0,38,289,1934,195,73,82,85,63,100,57,33,0,55,50,79,0,10,12,0,25476,8.24514991,25.97001764
11055,11055,Deliverance Miracle Revival,1817 SE Hawthorne Rd,GAINESVILLE,FL,32641,29.648476000000002,-82.301174,813110,81311008,Religious Organizations,0,2.0,0,2,2268,894,1123,1145,50%,50%,453,1772,0,0,0,0,43,16,453,19.97354497,78.13051146,0.0,0.0,0.0,0.0,1.89594356,0.70546737,2.52,449,730,674,830,39,701,614,0,0,49,0,0,38,289,1934,195,73,82,85,63,100,57,33,0,55,50,79,0,10,12,0,25476,8.24514991,25.97001764
11061,11061,Faith Tabernacle Missionary,1629 SE Hawthorne Rd,GAINESVILLE,FL,32641,29.649765999999996,-82.30315999999999,813110,81311008,Religious Organizations,0,4.0,0,4,2268,894,1123,1145,50%,50%,453,1772,0,0,0,0,43,16,453,19.97354497,78.13051146,0.0,0.0,0.0,0.0,1.89594356,0.70546737,2.52,449,730,674,830,39,701,614,0,0,49,0,0,38,289,1934,195,73,82,85,63,100,57,33,0,55,50,79,0,10,12,0,25476,8.24514991,25.97001764
11063,11063,First Missionary Baptist Chr,1515 SE 15th St,GAINESVILLE,FL,32641,29.636737,-82.30550799999999,813110,81311008,Religious Organizations,0,3.0,0,3,2268,894,1123,1145,50%,50%,453,1772,0,0,0,0,43,16,453,19.97354497,78.13051146,0.0,0.0,0.0,0.0,1.89594356,0.70546737,2.52,449,730,674,830,39,701,614,0,0,49,0,0,38,289,1934,195,73,82,85,63,100,57,33,0,55,50,79,0,10,12,0,25476,8.24514991,25.97001764
11080,11080,Showers of Blessings,2615 SE 15th St,GAINESVILLE,FL,32641,29.627408000000003,-82.30534200000001,813110,81311008,Religious Organizations,0,2.0,0,2,2268,894,1123,1145,50%,50%,453,1772,0,0,0,0,43,16,453,19.97354497,78.13051146,0.0,0.0,0.0,0.0,1.89594356,0.70546737,2.52,449,730,674,830,39,701,614,0,0,49,0,0,38,289,1934,195,73,82,85,63,100,57,33,0,55,50,79,0,10,12,0,25476,8.24514991,25.97001764
11101,11101,JESUS CHRIST NZRETH WORSHIP PR,1605 SE 28TH PL,GAINESVILLE,FL,32641,29.626596000000003,-82.304013,813110,81311008,RELIGIOUS ORGANIZATIONS,0,2.0,0,2,2268,894,1123,1145,50%,50%,453,1772,0,0,0,0,43,16,453,19.97354497,78.13051146,0.0,0.0,0.0,0.0,1.89594356,0.70546737,2.52,449,730,674,830,39,701,614,0,0,49,0,0,38,289,1934,195,73,82,85,63,100,57,33,0,55,50,79,0,10,12,0,25476,8.24514991,25.97001764
11122,11122,Faith Missionary Baptist Chr,2905 SE 21st Ave,GAINESVILLE,FL,32641,29.632168,-82.286452,813110,81311008,Religious Organizations,0,4.0,0,4,2081,698,1002,1079,48%,52%,528,1510,0,43,0,0,0,0,528,25.37241711,72.56126862,0.0,2.06631427,0.0,0.0,0.0,0.0,2.98,494,627,612,696,36,600,543,0,12,0,0,0,45,462,1604,106,36,56,140,25,35,0,0,41,90,12,56,101,0,0,0,28600,5.43008169,24.07496396
11126,11126,Highway Church of the Apostle,3091 SE Hawthorne Rd,GAINESVILLE,FL,32641,29.640749,-82.284827,813110,81311008,Religious Organizations,0,2.0,0,2,2081,698,1002,1079,48%,52%,528,1510,0,43,0,0,0,0,528,25.37241711,72.56126862,0.0,2.06631427,0.0,0.0,0.0,0.0,2.98,494,627,612,696,36,600,543,0,12,0,0,0,45,462,1604,106,36,56,140,25,35,0,0,41,90,12,56,101,0,0,0,28600,5.43008169,24.07496396
11156,11156,Compassionate Outreach,PO Box 143116,GAINESVILLE,FL,32614,29.649178999999997,-82.273276,813110,81311027,Religious Organizations,0,2.0,0,2,2255,802,833,1422,37%,63%,235,1896,0,13,0,0,111,0,235,10.42128603,84.07982262,0.0,0.57649667,0.0,0.0,4.92239468,0.0,2.79,766,730,545,428,28,616,493,0,0,72,11,0,29,586,1545,218,101,95,108,14,31,47,35,46,50,44,13,0,0,0,0,18917,2.66075388,46.53061224
11175,11175,Bethel Seventh Day Adventist,740 NE 21st St,GAINESVILLE,FL,32641,29.658895,-82.297904,813110,81311008,Religious Organizations,0,1.0,0,1,2255,802,833,1422,37%,63%,235,1896,0,13,0,0,111,0,235,10.42128603,84.07982262,0.0,0.57649667,0.0,0.0,4.92239468,0.0,2.79,766,730,545,428,28,616,493,0,0,72,11,0,29,586,1545,218,101,95,108,14,31,47,35,46,50,44,13,0,0,0,0,18917,2.66075388,46.53061224
11185,11185,Dayspring Missionary Baptist,1945 NE 8th Ave,GAINESVILLE,FL,32641,29.659009,-82.299239,813110,81311008,Religious Organizations,0,5.0,0,5,2255,802,833,1422,37%,63%,235,1896,0,13,0,0,111,0,235,10.42128603,84.07982262,0.0,0.57649667,0.0,0.0,4.92239468,0.0,2.79,766,730,545,428,28,616,493,0,0,72,11,0,29,586,1545,218,101,95,108,14,31,47,35,46,50,44,13,0,0,0,0,18917,2.66075388,46.53061224
11192,11192,Eastside Baptist Church,1501 E University Ave,GAINESVILLE,FL,32641,29.651343,-82.305438,813110,81311008,Religious Organizations,0,2.0,0,2,2255,802,833,1422,37%,63%,235,1896,0,13,0,0,111,0,235,10.42128603,84.07982262,0.0,0.57649667,0.0,0.0,4.92239468,0.0,2.79,766,730,545,428,28,616,493,0,0,72,11,0,29,586,1545,218,101,95,108,14,31,47,35,46,50,44,13,0,0,0,0,18917,2.66075388,46.53061224
11210,11210,Jesus Ministry,118 NE 20th St,GAINESVILLE,FL,32641,29.653436,-82.299297,813110,81311008,Religious Organizations,0,3.0,0,3,2255,802,833,1422,37%,63%,235,1896,0,13,0,0,111,0,235,10.42128603,84.07982262,0.0,0.57649667,0.0,0.0,4.92239468,0.0,2.79,766,730,545,428,28,616,493,0,0,72,11,0,29,586,1545,218,101,95,108,14,31,47,35,46,50,44,13,0,0,0,0,18917,2.66075388,46.53061224
11214,11214,Lighthouse EPC,615 SE 25th St,GAINESVILLE,FL,32641,29.645925,-82.291488,813110,81311008,Religious Organizations,0,2.0,0,2,2255,802,833,1422,37%,63%,235,1896,0,13,0,0,111,0,235,10.42128603,84.07982262,0.0,0.57649667,0.0,0.0,4.92239468,0.0,2.79,766,730,545,428,28,616,493,0,0,72,11,0,29,586,1545,218,101,95,108,14,31,47,35,46,50,44,13,0,0,0,0,18917,2.66075388,46.53061224
11218,11218,Mt Carmel Bapt Chr Family Life,2505 NE 8th Ave,GAINESVILLE,FL,32641,29.658276,-82.29174599999999,813110,81311008,Religious Organizations,0,3.0,0,3,2255,802,833,1422,37%,63%,235,1896,0,13,0,0,111,0,235,10.42128603,84.07982262,0.0,0.57649667,0.0,0.0,4.92239468,0.0,2.79,766,730,545,428,28,616,493,0,0,72,11,0,29,586,1545,218,101,95,108,14,31,47,35,46,50,44,13,0,0,0,0,18917,2.66075388,46.53061224
11219,11219,Mt Carmel Baptist Church,2505 NE 8th Ave,GAINESVILLE,FL,32641,29.658276,-82.29174599999999,813110,81311008,Religious Organizations,0,1.0,0,1,2255,802,833,1422,37%,63%,235,1896,0,13,0,0,111,0,235,10.42128603,84.07982262,0.0,0.57649667,0.0,0.0,4.92239468,0.0,2.79,766,730,545,428,28,616,493,0,0,72,11,0,29,586,1545,218,101,95,108,14,31,47,35,46,50,44,13,0,0,0,0,18917,2.66075388,46.53061224
11221,11221,Open Door Ministries,601 NE 19th St,GAINESVILLE,FL,32641,29.656569,-82.300561,813110,81311008,Religious Organizations,0,3.0,0,3,2255,802,833,1422,37%,63%,235,1896,0,13,0,0,111,0,235,10.42128603,84.07982262,0.0,0.57649667,0.0,0.0,4.92239468,0.0,2.79,766,730,545,428,28,616,493,0,0,72,11,0,29,586,1545,218,101,95,108,14,31,47,35,46,50,44,13,0,0,0,0,18917,2.66075388,46.53061224
